City_ID,Country,City,Date,Lat,Long,Cloudiness,Humidity,Wind_Speed,Temp_Max
2651520,GB,Darfield,1603851001,53.53,-1.38,59,88,10,45
2192828,NZ,Bulls,1603850938,-40.17,175.38,100,76,5.01,60.01
3874579,CL,Purranque,1603850720,-40.92,-73.17,100,93,9.17,46.4
2184707,NZ,Wanaka,1603851001,-44.7,169.15,83,45,2.98,61.77
3466704,BR,Castro,1603850995,-24.79,-50.01,0,69,4.23,58.39
2168943,AU,Devonport,1603850956,-41.17,146.35,61,54,8.01,61
3833367,AR,Ushuaia,1603851001,-54.8,-68.3,75,36,12.75,46.4
2206371,NZ,Levin,1603851001,-40.63,175.28,99,68,3,64
2183406,NZ,Riwaka,1603851001,-41.08,173,100,71,5.01,57.99
2188164,NZ,Lower Hutt,1603851001,-41.22,174.92,100,72,14.99,64.99
3874960,CL,Port Montt,1603850865,-41.47,-72.94,90,93,14.99,46.4
3840092,AR,Puerto Madryn,1603851001,-42.77,-65.04,50,33,10.63,59.2
3838859,AR,Río Gallegos,1603851001,-51.62,-69.22,0,34,10.29,50
2181133,NZ,Pareora,1603851001,-44.49,171.21,81,66,7,60.01
2206369,NZ,Foxton,1603851001,-40.47,175.3,100,76,5.01,64
3839307,AR,Rawson,1603851001,-43.3,-65.1,0,35,9.98,57.25
2186895,NZ,Methven,1603851001,-43.63,171.65,52,74,5.01,57
3874787,CL,Punta Arenas,1603850859,-53.15,-70.92,0,75,26.4,42.8
3833883,AR,Trelew,1603851001,-43.25,-65.31,0,34,8.23,57.02
2184397,NZ,Porirua,1603850957,-41.13,174.85,100,63,1.99,64.99
2206895,NZ,Greymouth,1603850958,-42.47,171.2,99,74,6.76,57.04
2183824,NZ,Rakaia,1603850976,-43.75,172.02,74,70,5.99,57
2186280,NZ,Nelson,1603850954,-41.28,173.28,95,58,3,63
2192362,NZ,Christchurch,1603850850,-43.53,172.63,60,62,13.87,59
2188444,NZ,Leeston,1603851003,-43.77,172.3,89,65,7,57.99
3832899,AR,Viedma,1603851003,-40.81,-63,2,63,1.99,53.01
5780557,US,Riverton,1603850892,40.52,-111.94,0,49,1.43,36
2182867,NZ,Sefton,1603851003,-43.25,172.67,9,62,13.87,57.99
7281807,AU,Seddon,1603851003,-37.81,144.89,0,60,1.12,71.01
2184904,NZ,Te Horo,1603851003,-40.81,175.12,99,68,3,64.99
4463810,US,Dobson,1603851003,36.4,-80.72,40,93,2.01,64.4
5150651,US,Clyde,1603851003,41.3,-82.98,100,94,1.97,42.01
2206894,NZ,Hokitika,1603851003,-42.72,170.97,99,76,7.31,57.72
965301,ZA,Edendale,1603851003,-29.65,30.31,64,95,6.33,68
2183774,NZ,Ranfurly,1603851003,-45.13,170.1,100,57,1.36,62.01
6331908,US,Milton,1603851003,34.13,-84.3,21,97,4.54,66
4794814,US,Wyndham,1603851003,37.7,-77.61,90,87,2.84,61
2189947,NZ,Himatangi,1603851003,-40.4,175.32,100,76,5.01,64
2179537,NZ,Wellington,1603850967,-41.29,174.78,98,72,14.99,62.01
4845585,US,Westport,1603850951,41.14,-73.36,100,79,4.47,54
2163355,AU,Hobart,1603850916,-42.88,147.33,75,71,11.41,63
2183310,NZ,Rolleston,1603851004,-43.58,172.38,51,62,13.87,57.99
5335650,US,Ceres,1603850788,37.59,-120.96,1,22,3.36,66.2
3899695,CL,Ancud,1603851004,-41.87,-73.82,90,93,8.05,48
2185018,NZ,Palmerston North,1603851004,-40.35,175.62,100,76,5.01,60.01
2166368,AU,Forbes,1603851004,-33.38,148.02,22,48,5.68,75
3443758,UY,Artigas,1603851004,-30.4,-56.47,0,71,6.71,55.65
3361934,ZA,Saldanha,1603851004,-33.01,17.94,100,87,2.24,59
2192964,NZ,Brightwater,1603851004,-41.38,173.12,90,71,4,63
4951594,US,Southbridge,1603851004,42.08,-72.03,100,82,2.46,48
3441702,UY,Melo,1603851004,-32.37,-54.18,83,87,10.49,59.81
2185296,NZ,Otautau,1603851004,-46.15,168,100,70,8.99,57.99
2186377,NZ,Murchison,1603851004,-41.8,172.33,97,52,1.34,66.61
2189529,NZ,Invercargill,1603851004,-46.4,168.35,81,70,8.99,57.99
2185245,NZ,Otorohanga,1603851004,-38.18,175.2,100,79,3.49,65.32
2208248,NZ,Balclutha,1603851004,-46.23,169.75,32,75,8.99,54
2178982,NZ,Woodend,1603851004,-43.32,172.67,24,62,13.87,57.99
2193747,NZ,Athenree,1603851004,-37.47,175.92,97,74,8.01,64
3871336,CL,Santiago,1603850865,-33.46,-70.65,75,50,2.24,55.4
3435261,AR,Concordia,1603850777,-31.39,-58.02,0,53,4.85,62.01
2147714,AU,Sydney,1603850833,-33.87,151.21,75,77,10.29,66.99
3837213,AR,San Juan,1603850825,-31.54,-68.54,87,24,9.6,69.31
2177671,AU,Armidale,1603851006,-30.52,151.65,100,78,7,62.01
3441575,UY,Montevideo,1603850868,-34.83,-56.17,40,82,9.17,59
2065665,AU,Mount Barker,1603851006,-35.07,138.87,0,51,1.01,70
932183,LS,Quthing,1603851006,-30.4,27.7,55,52,2.91,62.53
3430443,AR,Necochea,1603851006,-38.55,-58.74,94,79,1.99,55
2170577,AU,Cooma,1603851006,-36.23,149.13,90,76,6.93,53.6
950709,ZA,Swellendam,1603851006,-34.02,20.44,100,87,3.36,60.8
3876664,CL,Penco,1603850720,-36.73,-72.98,0,76,6.93,53.6
3893894,CL,Concepción,1603850855,-36.83,-73.05,0,76,6.93,53.6
3895061,CL,Chimbarongo,1603851006,-34.7,-71.05,20,66,4.7,55.4
3832791,AR,Villa Carlos Paz,1603851006,-31.42,-64.5,0,62,1.19,69.01
963516,ZA,Queenstown,1603851006,-31.9,26.88,2,58,4.94,62.51
3870294,CL,Talca,1603851006,-35.43,-71.67,20,66,4.7,55.4
2189630,NZ,Hunterville,1603851006,-39.93,175.57,100,76,5.01,60.01
2164837,AU,Goulburn,1603851006,-34.75,149.72,23,74,6.73,64
2145554,AU,Ulladulla,1603851006,-35.35,150.47,75,72,8.05,64.4
939676,ZA,Willowmore,1603851008,-33.29,23.49,0,82,2.08,58.14
3870282,CL,Talcahuano,1603851008,-36.72,-73.12,0,76,6.93,53.6
1688859,PH,San Nicolas,1603851008,18.17,120.6,75,83,4.7,84.2
3881276,CL,Lota,1603851008,-37.08,-73.17,0,76,6.93,53.6
3464547,BR,Dom Pedrito,1603851008,-30.98,-54.67,0,79,4.63,55.06
2058430,AU,Whyalla,1603851008,-33.03,137.58,0,52,6.93,68
2156404,AU,Mudgee,1603850957,-32.59,149.59,76,68,12.75,66.2
1005781,ZA,Elliot,1603851008,-31.33,27.85,16,48,8.52,64.53
2074865,AU,Carnarvon,1603850763,-24.87,113.63,0,64,23.04,73.4
2191451,NZ,Edgecumbe,1603851008,-37.98,176.83,100,68,1.99,64
3439525,UY,Young,1603851008,-32.68,-57.63,0,91,6.85,52.38
3896774,CL,Carahue,1603851008,-38.7,-73.17,90,93,9.17,48.2
3873775,CL,Rancagua,1603850860,-34.17,-70.74,18,69,2.42,46.9
2143285,AU,Wodonga,1603851008,-36.12,146.88,40,46,8.05,69.8
2169068,AU,Deniliquin,1603850845,-35.53,144.97,23,46,8.1,71.06
964420,ZA,Port Elizabeth,1603851008,-33.92,25.57,0,82,14.99,62.6
2184564,NZ,Piopio,1603851008,-38.47,175.02,100,79,2.51,62.24
3902377,BO,La Santisima Trinidad,1603851008,-14.83,-64.9,49,74,4.34,77.63
976361,ZA,Middelburg,1603851008,-25.78,29.46,0,59,0.47,63.82
3451138,BR,Rio Grande,1603851004,-32.03,-52.1,100,99,4,62.01
2537763,MA,Salé,1603850731,34.04,-6.82,0,87,3.36,50
2171845,AU,Cessnock,1603850829,-32.83,151.35,97,95,3.74,61
3448257,BR,São Sebastião,1603850832,-23.76,-45.41,25,84,5.86,72.45
3455908,BR,Oliveira,1603850758,-20.7,-44.83,16,85,2.01,67.59
3874096,CL,Quilpué,1603851010,-33.05,-71.45,75,100,5.82,53.6
3467530,BR,Canela,1603851010,-29.37,-50.82,53,92,3.51,60.01
933633,BW,Khudumelapye,1603851010,-23.88,24.75,0,32,7.87,72.14
3471910,BR,Apucarana,1603850968,-23.55,-51.46,0,41,8.05,77
2172880,AU,Byron Bay,1603851010,-28.65,153.62,75,78,12.75,73.4
886763,ZW,Masvingo,1603851010,-20.06,30.83,0,53,5.7,63.95
3457509,BR,Matão,1603851010,-21.6,-48.37,1,69,5.03,72.1
3457809,BR,Maravilha,1603851010,-26.76,-53.17,0,92,2.17,55.99
1017780,ZA,Boksburg,1603851010,-26.21,28.26,0,63,8.05,66.99
1058381,MG,Morondava,1603851010,-20.28,44.28,0,58,2.53,73.11
934753,MU,Beau Vallon,1603851010,-20.42,57.7,7,80,3,70
3901501,BO,Villazón,1603851010,-22.09,-65.59,0,37,2.46,56.25
3471697,BR,Araucária,1603851010,-25.59,-49.41,0,77,4.18,68
3469115,BR,Braço do Norte,1603851010,-28.27,-49.17,87,93,0.87,63.86
6322227,BR,Embu-Guaçu,1603851010,-23.85,-46.84,0,64,1.12,73.4
3448877,BR,São João de Meriti,1603851010,-22.8,-43.37,0,78,2.24,77
4035715,CK,Avarua,1603851011,-21.21,-159.78,100,83,8.05,73.4
3470003,BR,Biguaçu,1603850880,-27.49,-48.66,40,94,2.24,72
1015694,ZA,Breyten,1603851011,-26.3,29.99,0,74,2.8,56.41
3457776,BR,Mar de Espanha,1603851011,-21.87,-43.01,50,92,2.89,68.85
932416,LS,Mokhotlong,1603851011,-29.29,29.07,71,52,3.42,56.19
3438755,PY,Cecilio Baez,1603851011,-25.05,-56.32,0,60,3.22,65.97
3459855,BR,Joanópolis,1603851011,-22.93,-46.28,20,69,2.24,73.4
995202,ZA,Howick,1603851011,-29.48,30.23,54,95,6.85,68
933692,BW,Kang,1603851011,-23.68,22.79,0,27,12.15,74.21
3472969,BR,Aguaí,1603851011,-22.06,-46.98,34,74,3.91,71.53
3470177,BR,Bela Vista,1603851011,-22.11,-56.52,0,55,3.74,68.79
952747,ZA,Standerton,1603851011,-26.93,29.24,0,85,1.01,57.99
3459712,BR,Araquari,1603851011,-26.37,-48.72,20,94,2.24,70
4705564,US,Laureles,1603851011,26.11,-97.49,90,82,18.34,60.8
2138103,NC,Thio,1603851011,-21.62,166.22,0,36,11.41,93.2
934778,MU,Bambous,1603851011,-20.26,57.41,6,80,3,70
934750,MU,Bel Air Rivière Sèche,1603851011,-20.25,57.75,19,80,3,70
933288,BW,Mopipi,1603851011,-21.18,24.88,40,30,13.4,76.1
3835869,AR,Santiago del Estero,1603851011,-27.8,-64.26,0,41,10.38,75.11
3694112,PE,Paita,1603851011,-5.09,-81.11,77,87,12.46,64
3919720,BO,Colquechaca,1603851013,-18.67,-66.02,3,63,3.11,41.68
3448639,BR,São José do Rio Preto,1603850953,-20.82,-49.38,40,53,4.7,75.2
3436617,PY,Yegros,1603851013,-26.45,-56.4,0,61,3.51,65.14
3438743,PY,Edelira,1603851013,-26.75,-55.27,0,74,0.69,59.68
3472234,BR,Angatuba,1603851013,-23.49,-48.41,0,59,5.7,69.04
3455036,BR,Paraty,1603851013,-23.22,-44.71,1,81,1.52,73.33
3451152,BR,Rio do Sul,1603851013,-27.21,-49.64,27,90,0.81,70
3452237,BR,Promissão,1603851013,-21.54,-49.86,0,63,5.48,72.45
3472245,BR,Andrelândia,1603851013,-21.74,-44.31,0,90,1.81,64.99
933777,BW,Gabane,1603851013,-24.67,25.78,0,42,10.29,68
3445433,BR,Vassouras,1603851013,-22.4,-43.66,0,88,6.93,77
3939459,PE,Huancayo,1603850862,-12.07,-75.23,100,69,2.82,52.75
3925863,PE,Yanacancha,1603851013,-10.24,-76.65,100,77,1.14,45.77
3453896,BR,Pilar do Sul,1603851013,-23.81,-47.72,1,69,0.69,66.24
3437653,PY,Colonia Nueva Germania,1603851013,-23.9,-56.57,0,58,3.18,67.41
6301965,AU,Howard Springs,1603851013,-12.5,131.05,40,59,6.93,89.6
227592,UG,Katete,1603851013,-0.78,29.75,100,96,2.28,61.16
925789,MW,Mulanje,1603851013,-16.03,35.5,72,73,1.99,69.12
4328254,US,Iberia,1603851013,29.95,-91.75,40,88,5.82,78.8
3453025,BR,Ponto Novo,1603851015,-10.86,-40.13,100,74,3.22,75.58
3462383,BR,Goianápolis,1603851015,-16.51,-49.02,40,78,11.41,73.4
3350372,AO,Catabola,1603851015,-12.15,17.28,86,80,4.88,63.95
933077,BW,Shakawe,1603851015,-18.37,21.85,0,31,6.44,71.06
3467577,BR,Canavieiras,1603850742,-15.68,-38.95,100,93,11.86,77.38
3836669,AR,San Rafael,1603850900,-34.62,-68.33,0,38,15.17,61.11
1073482,MG,Anjozorobe,1603850948,-18.4,47.87,75,93,3.8,59
3466641,BR,Pojuca,1603851015,-12.42,-38.33,75,94,9.17,77
916246,ZM,Kabompo,1603851015,-13.59,24.2,48,52,3.65,67.53
931755,MW,Blantyre,1603851015,-15.79,35.01,37,78,4.45,65.89
3111158,ES,Sada,1603851015,43.36,-8.26,0,93,4.7,57
3456115,BR,Nova Soure,1603851015,-11.23,-38.48,100,92,2.04,73.22
3934608,PE,Moquegua,1603851015,-17.2,-70.94,0,67,0.81,56.3
4034908,WS,Vaitele,1603851015,-13.82,-171.8,75,74,11.41,86
1070940,MG,Fenoarivo,1603851015,-18.93,47.44,75,93,3.15,59
3460813,BR,Itambé,1603851015,-15.24,-40.62,100,89,1.1,72.37
921889,KM,Fomboni,1603851015,-12.28,43.74,0,74,4.94,78.39
1049261,MZ,Chimoio,1603851015,-19.12,33.48,0,100,2.24,64.4
3453586,BR,Piranhas,1603851015,-16.43,-51.82,86,84,3.11,75.2
3465342,BR,Corumbá,1603850738,-19.01,-57.65,0,76,0.63,73.78
4035236,WS,Malie,1603851016,-13.8,-171.85,75,74,11.41,86
927967,MW,Lilongwe,1603851016,-13.97,33.79,3,64,4.41,67.84
2520610,ES,Caceres,1603851016,39.52,-6.37,70,92,3,55
877925,TZ,Mingoyo,1603851016,-10.1,39.63,20,88,2.3,71.6
3468349,BR,Caculé,1603851016,-14.5,-42.22,100,85,2.71,72.93
1082243,MG,Ambilobe,1603851016,-13.2,49.05,2,87,3.74,69.89
923058,CD,Kambove,1603851016,-10.88,26.6,69,62,3.74,65.98
3465767,BR,Conceição da Feira,1603851016,-12.51,-39,100,90,3.51,74.17
3348313,AO,Huambo,1603851016,-12.78,15.74,94,80,3.22,64.63
1056386,MG,Soanierana Ivongo,1603851016,-16.92,49.58,69,81,1.16,71.71
878121,TZ,Mahuta,1603851016,-10.87,39.45,7,100,1.07,64.29
1058532,MG,Moramanga,1603851016,-18.93,48.2,76,92,2.51,58.42
3461153,BR,Ipaba,1603851016,-19.41,-42.42,63,90,1.77,73.06
3936952,PE,La Oroya,1603851016,-11.52,-75.9,100,66,2.01,47.79
3458778,BR,Laranjeiras,1603851016,-10.81,-37.17,40,74,6.93,80.6
884141,ZW,Norton,1603851016,-17.88,30.7,1,58,10,62.01
3461565,BR,Ibirataia,1603851016,-14.07,-39.64,100,95,1.48,72.27
3933185,PE,Pampas,1603851016,-12.4,-74.9,100,71,0.27,52.9
3927758,PE,Acobamba,1603851016,-11.35,-75.66,100,64,0.98,55.42
3455161,BR,Pará de Minas,1603851018,-19.86,-44.61,0,64,0.94,75.2
1634010,ID,Ngoro,1603851018,-7.68,112.26,100,64,3.47,85.66
3692747,PE,Salaverry,1603851018,-8.23,-78.97,87,88,5.82,62.17
156124,TZ,Kyaka,1603851018,-1.25,31.42,75,93,1.1,66.2
3696057,PE,Juanjuí,1603851018,-7.18,-76.73,99,82,1.88,76.6
3407755,BR,Amarante do Maranhão,1603851018,-5.57,-46.74,98,87,3.51,74.16
1646170,ID,Cirebon,1603851018,-6.71,108.56,100,64,3.91,85.71
3397763,BR,Jacareacanga,1603851018,-6.22,-57.75,27,74,1.95,76.73
150689,TZ,Poli,1603851018,-3.33,36.8,75,93,11.41,69.8
1627253,ID,Sidoarjo,1603850944,-7.45,112.72,82,59,5.91,86.56
1624668,ID,Tarub,1603851018,-6.93,109.17,41,67,2.46,84.87
202239,RW,Gikongoro,1603851018,-2.46,29.57,94,86,1.86,60.64
3389321,BR,Santa Rita,1603851018,-7.11,-34.98,20,88,5.82,77
2095925,PG,Ialibu,1603851018,-6.28,143.99,98,92,3.2,64.22
1645220,ID,Driyorejo,1603851018,-7.37,112.62,94,59,5.59,87.22
3651251,EC,Saquisilí,1603851018,-0.83,-78.67,75,81,4.7,51.8
3466696,BR,Catalão,1603851018,-18.17,-47.95,5,77,2.57,71.38
909887,ZM,Luangwa,1603851018,-15.62,30.42,4,38,7.96,77.81
2317397,CD,Bandundu Province,1603851018,-3.32,17.37,100,98,2.53,71.71
3384983,BR,Vitorino Freire,1603851020,-4.07,-45.17,100,90,3.69,75.69
3398691,BR,Gravatá,1603851020,-8.2,-35.56,100,89,4.81,70.39
3662395,BR,Santo Antônio do Içá,1603851020,-3.1,-67.94,95,93,3.38,76.55
3391130,BR,Puxinanã,1603851020,-7.16,-35.96,40,83,12.75,73.4
3405616,BR,Boa Viagem,1603851020,-5.13,-39.73,84,70,3.15,76.82
158321,TZ,Karema,1603851020,-6.82,30.44,68,68,3.96,73.6
155405,TZ,Mafinga,1603851020,-7.25,35.07,0,78,2.28,65.28
3404713,BR,Buriti dos Lopes,1603851020,-3.17,-41.87,21,88,5.26,75.88
2312249,CD,Mushie,1603851020,-3.02,16.9,100,97,3.15,71.44
3402000,BR,Codó,1603850917,-4.46,-43.89,100,91,2.66,75.96
1645524,ID,Depok,1603851020,-6.4,106.82,24,66,0.38,90
3691161,PE,Túcume,1603851020,-6.51,-79.86,96,80,3,64.99
3698705,PE,Cascas,1603851020,-7.48,-78.82,100,72,0.6,64.15
3395336,BR,Maribondo,1603851020,-9.58,-36.31,75,83,4.7,77
484670,RU,Taman',1603851020,45.21,36.72,0,81,8.95,50
3404862,BR,Brejo da Madre de Deus,1603851020,-8.15,-36.37,100,87,7.09,69.96
160172,TZ,Dongobesh,1603851020,-4.07,35.38,74,93,9.28,56.05
3393536,BR,Olinda,1603850952,-8.01,-34.86,40,74,8.05,80.6
3394018,BR,Natuba,1603851020,-7.64,-35.55,40,83,12.75,73.4
3814639,PE,Papayal,1603851020,-4.08,-80.74,100,66,3.51,71.02
2083537,PG,Wewak,1603851021,-3.55,143.63,73,75,0.27,83.37
1648082,ID,Boyolangu,1603851021,-8.12,111.89,100,74,8.08,81.63
1632998,ID,Pamanukan,1603851021,-6.28,107.81,97,60,0.78,86.43
154654,TZ,Masumbwe,1603851021,-3.63,32.18,100,78,1.21,69.51
3397277,BR,João Pessoa,1603850825,-7.12,-34.86,20,88,5.82,77
1735506,MY,Kepala Batas,1603851021,5.52,100.43,20,79,1.12,84.2
1690666,PH,Samal,1603851021,7.07,125.71,75,70,1.12,86
3675191,CO,Marulanda,1603851021,5.28,-75.26,100,94,3.11,54.27
3392734,BR,Paulo Afonso,1603851021,-9.41,-38.21,100,84,6.38,75.4
229746,UG,Luwero,1603851021,0.85,32.47,37,95,1.52,63
3392907,BR,Pastos Bons,1603851021,-6.6,-44.08,100,78,1.63,74.32
3385920,BR,Tupanatinga,1603851021,-8.75,-37.34,100,84,2.17,70.84
3397675,BR,Jaguaribe,1603851021,-5.89,-38.62,45,73,10.33,77.52
1256558,IN,Shertallai,1603851021,9.7,76.33,13,88,5.01,75
2398430,GA,Mimongo,1603851021,-1.62,11.61,100,95,4.52,69.44
1723963,PH,Bood,1603851021,9.75,123.83,20,70,6.93,86
191245,KE,Kisumu,1603851021,-0.1,34.76,67,79,4.94,66.2
3659544,EC,Alamor,1603851021,-4.02,-80.02,100,88,4.81,61
1693104,PH,Polo,1603851021,9.48,123.18,40,66,9.17,86
3405870,BR,Belém,1603851021,-1.46,-48.5,40,88,4.7,77
3713499,PA,Caimitillo,1603851023,9.15,-79.53,20,83,3.36,80.6
4205615,US,Liberty,1603851023,31.83,-81.5,17,89,4.56,73.99
1735459,MY,Teluk Anson,1603850765,4.03,101.02,26,67,0.92,86.41
3680453,CO,Istmina,1603851023,5.16,-76.68,100,95,2.46,74.48
3667873,CO,Sogamoso,1603851023,5.71,-72.93,100,82,0.78,55.69
3689697,CO,Arboledas,1603851023,7.64,-72.8,95,73,0.38,70.07
2325161,NG,Ozubulu,1603851023,5.96,6.85,99,98,3.29,73.47
3674654,CO,Mocoa,1603851023,1.15,-76.65,100,76,4.12,73.29
3706567,PA,Las Cumbres,1603851023,9.08,-79.53,40,88,3.36,80.6
2293342,CI,Adzopé,1603851023,6.11,-3.86,49,97,1.61,72.93
2338876,NG,Ifo,1603851023,6.81,3.2,40,94,2.62,78.8
1698289,PH,Pundaguitan,1603851023,6.37,126.17,100,77,7.49,80.91
1750500,MY,Permatang Kuching,1603850766,5.46,100.38,20,79,1.12,84.2
2325249,NG,Oyan,1603851023,8.05,4.77,3,87,3.22,71.26
1733023,MY,Kuala Lipis,1603851023,4.18,102.05,61,68,0.67,84.47
2886242,DE,Cologne,1603850889,50.93,6.95,20,76,10.29,54
2295684,GH,Salaga,1603851005,8.55,-0.52,100,71,4.32,77.23
3674885,CO,Melgar,1603851023,4.2,-74.64,100,71,3.29,78.04
3714939,PA,Alanje,1603851023,8.4,-82.55,59,87,4.38,80.01
1819729,HK,Hong Kong,1603850812,22.29,114.16,100,71,1.01,78.01
3667023,CO,Titiribí,1603851025,6.06,-75.79,75,93,3.36,59
3623716,CR,La Fortuna,1603850932,10.47,-84.65,100,87,0.4,75.11
2350886,NG,Aku,1603851025,6.71,7.32,20,88,2.01,77
3675252,CO,Mariquita,1603850812,5.2,-74.89,100,85,3.2,73.24
1250161,LK,Batticaloa,1603850766,7.71,81.69,0,75,5.93,80.53
2274895,LR,Monrovia,1603851025,6.3,-10.8,75,94,5.82,77
3641351,VE,El Tigre,1603850786,8.89,-64.25,0,80,10.98,76.55
2332504,NG,Lafiagi,1603851025,8.87,5.42,0,56,2.68,76.41
2294086,GH,Wankyi,1603851025,7.74,-2.1,100,90,3.53,72
2284647,CI,Man,1603851025,7.41,-7.55,100,73,0.69,71.89
1705105,PH,Luna,1603851025,10.97,123.23,39,65,0.72,84.99
1717103,PH,Columbio,1603851025,6.7,124.94,96,71,1.45,84
2289983,CI,Dimbokro,1603851025,6.65,-4.7,98,97,2.37,72.75
2327735,NG,Ogbomosho,1603851025,8.13,4.25,4,84,3.2,72.73
2339354,NG,Ibadan,1603851025,7.39,3.9,100,93,1.03,73.63
3177547,IT,Dolo,1603851025,45.43,12.07,0,87,4.81,51.01
2392897,BJ,Lokossa,1603851025,6.64,1.72,86,94,3.67,74.61
1706282,PH,Linan,1603851025,6.43,124.98,90,83,2.24,78.8
3604503,HN,Namasigüe,1603851026,13.2,-87.14,97,89,1.54,76.26
3588476,GT,Tecpán Guatemala,1603851026,14.77,-90.99,96,94,1.99,66
1611108,TH,Chon Buri,1603851026,13.3,101.3,100,79,6.38,80.01
3861966,AR,Cervantes,1603851026,-39.05,-67.38,0,33,6.93,57.2
3526473,MX,Jocotitlán,1603851026,19.71,-99.79,75,72,2.37,59
1723481,PH,Buenavista,1603851026,8.98,125.41,77,71,2.1,83.57
1721577,PH,Cabiraoan,1603851026,18.32,122.09,89,67,1.45,85.66
1692318,PH,Putiao,1603851026,13.02,123.71,9,62,2.15,88.65
3530123,MX,Coyotepec,1603851026,19.77,-99.21,75,49,11.41,68
1704070,PH,Magalalag,1603851026,17.58,121.74,86,74,2.59,84.25
1735022,MY,Temerloh,1603851026,3.45,102.42,100,76,1.28,83.23
1276491,IN,Beltangadi,1603851026,13.98,75.3,0,81,4.07,68.05
1692193,PH,Tayuman,1603851026,14.51,121.16,40,70,6.93,90
1685422,PH,Sulangan,1603851026,11.14,123.72,19,70,1.03,83.35
1713850,PH,Entablado,1603851026,15.29,120.87,75,74,2.24,84.2
2324767,NG,Potiskum,1603851026,11.71,11.07,0,20,6.17,74.01
1263370,IN,Mātherān,1603851028,18.98,73.27,40,74,3.36,80.6
1275388,IN,Bodinayakkanur,1603851028,10.02,77.35,0,65,1.1,76.08
1254089,IN,Tumkūr,1603851028,13.34,77.1,40,100,3.76,62.6
1687868,PH,Santa Rosa Sur,1603851028,14.26,122.72,8,61,2.39,87.67
1707233,PH,Larap,1603851028,14.3,122.65,6,63,2.06,87.24
2444219,NE,Gouré,1603850798,13.98,10.27,0,23,5.01,78.01
3929631,PE,San Isidro,1603851028,-12.12,-77.05,40,82,12.75,62.6
3526927,MX,Hueytamalco,1603851028,19.95,-97.27,93,89,1.86,67.95
1261853,IN,Narasannapeta,1603851028,18.42,84.05,57,68,4.9,75.85
1726979,PH,Bantog,1603851028,16.01,120.69,48,72,6.85,85.48
3615730,NI,Waspán,1603851028,14.74,-83.97,100,94,1.97,76.64
4155751,US,Florida,1603851028,28.75,-82.5,75,83,5.82,77
1693620,PH,Subaan,1603851028,13.08,121.36,31,66,3.38,86.59
2445488,NE,Dosso,1603851028,13.05,3.19,0,19,5.12,75.97
1716834,PH,Coron,1603851028,12,120.2,72,81,9.24,83.26
1273800,IN,Kadapa,1603851028,14.47,78.82,51,75,2.3,75.79
4003703,MX,Jungapeo de Juárez,1603851028,19.45,-100.48,93,88,2.75,64
3605950,HN,Liure,1603851028,13.54,-87.09,40,83,4.7,71.6
1610503,TH,Kaeng Khoi,1603851028,14.59,101,100,80,4,82
2460546,ML,Banamba,1603851028,13.55,-7.45,100,20,5.23,74.52
1272864,IN,Dhārchula,1603850885,29.85,80.53,0,32,3.33,59.02
1277557,IN,Ballarpur,1603850887,19.83,79.35,0,68,1.74,73.36
5392171,US,San Jose,1603850802,37.34,-121.89,0,24,0.4,69.01
1256050,IN,Sirsāganj,1603851030,27.05,78.7,0,26,1.99,70.18
4003211,MX,La Cañada,1603851030,20.62,-100.32,40,26,4.7,69.8
3428068,AR,San Vicente,1603851030,-26.62,-54.13,0,73,0.87,57.69
2511174,ES,Santa Cruz de Tenerife,1603851030,28.47,-16.25,90,87,6.93,66.99
1727073,PH,Bansud,1603851030,12.87,121.46,9,70,6.98,86.25
1277939,IN,Bagaha,1603850887,27.1,84.08,0,65,1.63,70.41
3724439,HT,Grande Rivière du Nord,1603851030,19.58,-72.18,26,86,6.85,76.86
1261957,IN,Nandikotkūr,1603851030,15.87,78.27,53,68,3.47,73.33
1703372,PH,Malabago,1603851030,15.97,120.35,99,73,9.08,85.53
1715636,PH,Dao,1603851030,11.39,122.69,9,67,1.77,86.81
1272768,IN,Dhing,1603851030,26.47,92.47,0,81,5.53,74.53
1258126,IN,Rishra,1603851030,22.71,88.35,0,83,5.82,73.4
3576765,LC,Dennery,1603851030,13.9,-60.89,40,83,14.99,82.4
1253133,IN,Virār,1603851030,19.47,72.8,40,74,3.36,80.6
1687291,PH,Sapang Buho,1603851031,15.59,121.12,70,66,4.03,86.61
1166164,PK,Sanghar,1603851031,26.05,68.95,0,77,4.7,64.4
1274536,IN,Chatrā,1603851031,24.22,84.87,0,100,3.11,59
4169156,US,Port Orange,1603850859,29.14,-81,40,88,4.7,80.01
1262574,IN,Mūl,1603850946,20.07,79.67,0,72,2.84,71.8
3526601,MX,Jalpan,1603851031,21.23,-99.48,99,78,2.42,68.95
1263528,IN,Marhaura,1603851031,25.97,84.87,0,77,2.24,66.2
3528788,MX,El Llano,1603851031,20.05,-99.3,75,41,0.43,59.27
1274237,IN,Chikhli,1603851031,20.35,76.25,0,54,0.69,71.1
4012957,MX,Contepec,1603851031,20.02,-100.12,40,26,4.7,69.8
3987500,MX,San Buenaventura,1603851031,27.08,-101.53,0,48,8.21,49.91
1261378,IN,Nīmāj,1603851031,26.15,74,0,23,4.56,69.69
1262891,IN,Mohgaon,1603851031,21.65,78.72,0,62,2.44,72.84
3995010,MX,Nazareno,1603851031,25.38,-103.42,5,17,11.41,89.6
1270336,IN,Haringhāta,1603851031,22.95,88.57,0,83,5.82,73.4
1258637,IN,Ramnagar,1603851031,29.4,79.12,0,48,3.91,64.06
1258584,IN,Rāmpura,1603851032,30.25,75.23,0,28,1.72,63.88
1269843,IN,Hyderabad,1603850922,17.38,78.47,75,93,3.36,72
1273756,IN,Daboh,1603850887,26,78.88,0,27,0.25,72.41
1268510,IN,Kālāgarh Project Colony,1603851033,29.5,78.75,0,52,1.61,64.44
1264351,IN,Mahroni,1603851033,24.59,78.73,0,40,3.24,71.02
1266622,IN,Khunti,1603851033,23.08,85.28,0,54,3.85,69.64
1264433,IN,Mahārāganj,1603851033,27.13,83.57,0,53,1.12,69.26
3981345,MX,Topolobampo,1603851033,25.6,-109.05,5,30,20.8,71.6
1258876,IN,Sardarpur,1603851033,22.68,74.95,0,43,4.61,69.28
102318,SA,Sayhāt,1603851033,26.49,50.04,0,88,3.36,68
3995465,MX,Monterrey,1603850947,25.67,-100.32,90,76,5.82,51.8
1278923,IN,Amānganj,1603851033,24.43,80.03,0,44,0.89,73.44
3174050,IT,Province of Mantua,1603851033,45.17,10.78,0,100,2.24,46
3996647,MX,Mapimí,1603851033,25.82,-103.85,5,17,11.41,89.6
1850108,JP,Tomigusuku,1603851033,26.18,127.67,20,54,13.87,82.4
1267675,IN,Kārsiyāng,1603851033,26.88,88.28,0,89,3.06,60.46
1273637,IN,Dalmau,1603851033,26.07,81.03,0,37,1.25,73.36
1268011,IN,Kannauj,1603851033,27.05,79.92,0,30,2.48,70
1176608,PK,Islamkot,1603851033,24.7,70.18,0,43,3.49,75.58
1267154,IN,Khajuraho,1603851033,24.85,79.93,0,40,1.01,73
4001597,MX,La Lira,1603851034,20.47,-100.15,40,26,4.7,69.8
4146429,US,Aventura,1603850885,25.96,-80.14,20,83,10.29,82.4
1276634,IN,Beāwar,1603851035,26.1,74.32,0,25,3.71,67.59
5357155,US,Hillsborough,1603850988,37.57,-122.38,20,32,11.41,69.8
1808931,CN,Hangu,1603851035,39.25,117.79,0,28,2.24,57.2
5097529,US,Edison,1603851035,40.52,-74.41,90,58,3.36,57.2
5378566,US,Oakley,1603850762,38,-121.71,0,32,6.73,66.99
5412199,US,Arvada,1603850909,39.8,-105.09,29,75,4.81,33.01
5525042,US,Levelland,1603851035,33.59,-102.38,90,92,18.34,30.2
2525573,IT,Belmonte Mezzagno,1603851035,38.05,13.39,0,79,5.48,59
1253628,IN,Uttarkāshi,1603851035,30.73,78.45,0,32,4.63,59.67
6541973,IT,Pozzallo,1603851035,36.73,14.85,0,100,2.24,60.01
294068,IL,Netivot,1603851035,31.42,34.59,96,100,3.78,73.99
734256,GR,Rapsani,1603851035,39.9,22.55,100,82,2.44,55.99
114593,IR,Susa,1603851035,32.19,48.24,0,35,0.65,61.3
4168228,US,Pensacola,1603851035,30.42,-87.22,90,94,8.05,79
2522890,IT,Tortolì,1603851035,39.93,9.66,0,62,4,52
1806408,CN,Yangjiang,1603851035,21.85,111.97,100,80,11.54,74.08
4758041,US,Fairfax,1603851035,38.85,-77.35,90,82,5.82,60.8
1863440,JP,Musashimurayama,1603851035,35.76,139.39,75,67,2.24,70
1254198,IN,Trāl,1603851035,33.93,75.1,0,46,1.43,47.3
4657077,US,Shelbyville,1603850790,35.48,-86.46,90,88,4.29,66
1851282,JP,Tadotsu,1603851036,34.27,133.75,75,68,2.24,66.99
4470778,US,Hickory,1603850865,35.73,-81.34,1,93,2.53,63
4557109,US,Chambersburg,1603851036,39.94,-77.66,86,76,4.61,57
4636285,US,Lenoir City,1603851036,35.8,-84.26,29,96,1.52,66.99
360630,EG,Cairo,1603850925,30.06,31.25,20,73,6.93,71.6
1794806,CN,Shizuishan,1603851036,39.23,106.77,99,41,5.57,46.74
262383,GR,Fyteíes,1603851036,38.7,21.18,40,82,8.05,62.6
2507480,DZ,Algiers,1603850978,36.75,3.04,20,93,3.96,50
4413595,US,Warrensburg,1603850965,38.76,-93.74,90,99,2.82,33.01
5415035,US,Broomfield,1603850839,39.92,-105.09,1,85,5.82,33.01
1798425,CN,Puyang,1603851036,29.46,119.89,78,74,6.4,66.54
136014,IR,Gachsaran,1603851036,30.36,50.8,0,47,3.96,55.4
2110891,JP,Takahata,1603851036,38,140.19,75,100,2.24,59
2520456,ES,Campanario,1603851036,38.86,-5.62,23,82,2.48,50.99
247068,JO,Sakib,1603851036,32.28,35.81,91,87,2.35,56.86
2563020,MT,Gudja,1603851036,35.85,14.5,0,75,5.99,60.01
5467024,US,Española,1603851036,35.99,-106.08,90,92,1.01,28.99
2112141,JP,Kōriyama,1603851036,37.4,140.38,75,87,1.12,60.01
4882920,US,Addison,1603851037,41.93,-87.99,75,64,5.82,37.4
4397962,US,Mehlville,1603850882,38.51,-90.32,90,93,6.93,41
4013708,MX,Ciudad Juárez,1603850933,31.73,-106.48,75,69,5.26,36
5540831,US,Hurricane,1603851038,37.18,-113.29,1,17,21.92,55.4
4589387,US,North Charleston,1603851038,32.89,-80.01,1,83,3.76,71.6
1853662,JP,Ōtake,1603851038,34.2,132.22,99,23,1.39,66
1926004,JP,Sennan,1603851038,34.36,135.28,75,63,4.7,71.01
5383465,US,Pittsburg,1603850858,38.03,-121.88,0,39,4.12,68
5338196,US,Coalinga,1603850806,36.14,-120.36,0,36,1.05,60.01
4644585,US,Nashville,1603850456,36.17,-86.78,90,88,5.5,64.4
174983,AM,Armash,1603851038,39.77,44.81,100,75,2.98,41
2986494,FR,Arrondissement de Poitiers,1603851038,46.58,0.33,20,87,9.17,53.6
710950,UA,Chapayevka,1603851038,47.47,36.35,0,68,12.37,48.29
1168036,PK,Pind Dadan Khan,1603851038,32.59,73.05,0,28,1.88,64.58
3198365,SI,Kamnik,1603851038,46.23,14.61,40,100,1.12,52
2871198,DE,Miesbach,1603851038,47.79,11.83,43,1,7.09,37.99
2737599,PT,Mogadouro,1603851038,41.34,-6.71,100,94,8.01,52
6325479,CA,Beaupré,1603851038,47.04,-70.9,0,72,1.99,28
4357617,US,Havre de Grace,1603851038,39.55,-76.09,87,85,3.13,57.99
685211,RO,Becicherecu Mic,1603851038,45.83,21.05,0,100,4.7,50
3069648,CZ,Nová Včelnice,1603851039,49.24,15.07,0,100,3.85,34
1529102,CN,Ürümqi,1603851039,43.8,87.6,16,51,6.71,39.2
726384,BG,Topolovgrad,1603851039,42.08,26.33,5,100,2.66,50
3193545,BA,Peći,1603851039,44.63,16.79,20,100,1.12,48.2
1524787,KZ,South Kazakhstan Region,1603851039,43,68,0,82,9.28,30.94
4900292,US,Lockport,1603851039,41.59,-88.06,90,80,4.7,37.4
785285,RS,Surdulica,1603851039,42.69,22.17,37,10,2.75,48
542334,RU,Krasnogvardeyskoye,1603851039,45.85,41.52,44,71,17.78,51.51
6143367,CA,Sechelt,1603851039,49.47,-123.77,100,90,1.01,46.99
670213,RO,Poieni,1603851039,46.92,22.9,90,93,3.36,42.8
5115107,US,Dix Hills,1603851039,40.8,-73.34,90,62,3.36,57.2
685419,RO,Baraolt,1603851039,46.08,25.6,86,91,2.35,42.01
3037656,FR,Angers,1603850994,47.47,-0.55,20,87,9.17,53.6
669952,RO,Pomezeu,1603851040,46.78,22.28,67,93,6.93,48.2
3172079,IT,Oleggio,1603851040,45.6,8.64,0,87,3.36,50
6541106,IT,Follonica,1603851040,42.93,10.76,0,82,5.19,54
5176472,US,Westerville,1603851040,40.13,-82.93,90,100,3.36,48
2940938,DE,Bürstadt,1603851040,49.64,8.46,100,82,8.99,52
6159232,CA,Summerland,1603850876,49.6,-119.67,75,59,23.04,39
3068293,CZ,Písek,1603851041,49.31,14.15,18,99,4.27,37.99
727838,BG,Galabovo,1603851041,42.14,25.87,5,100,3.69,57
672146,RO,Nucet,1603851041,44.78,25.55,75,100,6.93,54
3175531,IT,Provincia di Imperia,1603851041,43.97,7.78,4,100,7,57
673316,RO,Milcovul,1603851041,45.65,27.25,19,88,1.41,52.56
734943,GR,Neo Souli,1603851041,41.1,23.65,0,86,3,59
674318,RO,Lungeşti,1603851041,44.57,24.18,90,93,1.12,54
684666,RO,Bistreț,1603851041,43.9,23.5,90,93,1.12,54
2766675,AT,Sankt Jakob,1603851041,46.55,14.06,40,93,3.36,45
616835,AM,Azatan,1603851041,40.72,43.83,95,56,1.12,32
3063596,CZ,Uničov,1603851041,49.77,17.12,92,98,0.98,46.99
5096316,US,Carteret,1603850981,40.58,-74.23,90,58,3.36,57.2
662811,RO,Vinga,1603851041,46.02,21.2,0,93,4.7,50
3187681,BA,Višegrad,1603851041,43.78,19.3,0,100,2.24,44.6
678421,RO,Fărtăţeşti,1603851041,44.78,24,90,93,1.12,54
684481,RO,Bocsig,1603851041,46.42,21.95,0,93,4.7,50
675331,RO,Izvoru Bârzii,1603851041,44.71,22.67,87,85,3.53,51.93
741609,TR,Merzifon,1603851041,40.87,35.46,0,61,2.24,46.4
6441828,FR,Meyzieu,1603851041,45.77,5,84,76,8.05,51.8
3064079,CZ,Třeboň,1603851042,49,14.77,0,93,4.5,34
3057772,SK,Šahy,1603851042,48.07,18.95,81,95,3.58,53.01
2620275,DK,Hjallerup,1603851043,57.16,10.15,100,95,8.99,48
674523,RO,Luizi-Călugăra,1603851043,46.53,26.83,90,100,2.24,54
560154,RU,Gorelki,1603851043,54.27,37.62,0,80,10.22,40.39
522871,RU,Neklyudovo,1603851043,56.41,43.98,0,87,11.18,33.8
2636531,GB,Sunderland,1603851043,54.9,-1.38,89,82,3,46
1492517,RU,Shadrinsk,1603851043,56.09,63.63,60,96,7.18,19.08
523415,RU,Narovchat,1603851043,53.88,43.69,89,92,9.66,32.23
687432,UA,Zdolbuniv,1603851043,50.52,26.24,0,98,11.01,45
2813110,DE,Weida,1603851043,50.77,12.07,100,68,14.52,48.99
3140321,NO,Oltedal,1603851043,58.83,6.05,100,85,4,46.99
599686,LT,Dusetos,1603851043,55.75,25.85,100,94,9.93,52.7
547560,RU,Klimovsk,1603851043,55.36,37.52,0,93,6.71,41
2953362,DE,Bad Salzdetfurth,1603851043,52.06,10.01,100,81,1.01,51.01
478269,RU,Usol'ye,1603851043,59.43,56.68,100,92,3,26.01
491351,RU,Sofrino,1603851043,56.15,37.97,0,87,8.95,42.8
2650346,GB,East Retford,1603851043,53.32,-0.94,0,87,14.99,46
2786345,BE,Soumagne,1603851043,50.62,5.75,75,93,12.75,53.01
696292,UA,Prymors'k,1603851043,46.73,36.34,0,79,17.16,54.77
494427,RU,Shilovo,1603851044,54.32,40.87,84,87,4,34
589580,EE,Uulu,1603851044,58.28,24.58,100,88,11.99,48.99
2026895,RU,Belogorsk,1603851044,50.92,128.46,88,82,5.5,35.51
756151,PL,Warka,1603851044,51.78,21.19,65,90,3.18,53.01
2634138,GB,Whitburn,1603851044,54.95,-1.37,91,89,18.57,45
711635,UA,Borodianka,1603851044,50.64,29.92,0,100,4.47,44.6
2654020,GB,Caldercruix,1603851044,55.89,-3.89,100,89,1.01,46
2866333,DE,Nettetal,1603851044,51.32,6.28,100,81,10.29,53.6
475100,RU,Verkhniye Kigi,1603851044,55.41,58.6,84,93,7.45,27.1
1494745,RU,Podsineye,1603851044,53.67,91.54,88,100,2.24,28.4
510342,RU,Pestretsy,1603851044,55.75,49.65,0,86,6.71,28.4
1491197,RU,Spassk,1603851044,52.75,87.75,100,90,11.56,35.67
556575,RU,Imeni Morozova,1603851044,59.98,31.04,100,83,14.52,53.01
3095797,PL,Koło,1603851044,52.2,18.64,99,99,6.89,44.01
742606,TR,Köse,1603851044,40.21,39.65,0,54,3.27,37.4
2909240,DE,Hattersheim,1603851044,50.07,8.47,75,76,8.05,52
2799897,BE,Dalhem,1603851044,50.71,5.73,100,95,1.01,53.01
3063907,CZ,Trutnov,1603851044,50.56,15.91,41,89,13,42.01
2618814,DK,Kjellerup,1603851045,56.29,9.44,100,93,14.99,48.2
2612695,DK,Stavtrup,1603850971,56.13,10.12,100,93,6.93,50
2927226,DE,Felsberg,1603851046,51.13,9.42,100,84,3,48
588348,EE,Tapa,1603851046,59.26,25.96,75,93,8.05,46.4
2634360,GB,West Linton,1603851046,55.75,-3.36,40,87,12.75,45
555798,RU,Issa,1603851046,53.87,44.86,91,93,8.86,31.66
6058415,CA,Logan Lake,1603851046,50.5,-120.8,90,74,4.7,37.4
1506073,RU,Gur'yevsk,1603851046,54.28,85.93,75,82,17.38,34.88
456827,LV,Pāvilosta,1603851046,56.89,21.19,9,81,13.87,51.8
542464,RU,Krasnoarmeysk,1603851046,51.02,45.7,9,72,5.01,33.01
2639083,GB,Rothesay,1603851046,55.84,-5.06,100,83,3,48
511565,RU,Penza,1603851046,53.2,45,69,60,6.31,33.01
2809778,DE,Wickede,1603851046,51.48,7.87,100,81,19.46,53.01
470905,RU,Vuktyl,1603851046,63.86,57.31,100,98,8.63,30.79
472976,RU,Vodnyy,1603851046,63.5,53.41,100,96,10.13,36.68
537127,RU,Lakhtinskiy,1603851046,59.99,30.16,90,87,8.95,52
544397,RU,Kortkeros,1603851046,61.81,51.58,75,93,8.95,35.6
3092080,PL,Miastko,1603851046,54,16.98,100,93,5.99,42.01
504269,RU,Pudozh,1603851046,61.81,36.53,100,86,11.5,47.34
3162970,NO,Årdalstangen,1603851046,61.24,7.7,83,93,3.76,39
632370,FI,Varkaus,1603851047,62.32,27.87,90,93,4.7,48.2
3420846,GL,Qaqortoq,1603851047,60.72,-46.03,100,80,1.25,30.2
657530,FI,Hollola,1603851047,61.05,25.43,100,99,9.75,45
779350,NO,Karasjok,1603851047,69.47,25.51,100,92,17.22,30.2
4256426,US,Dale,1603851047,38.17,-86.99,90,100,3.36,51.8
515698,RU,Olenegorsk,1603851047,68.15,33.3,100,87,17.16,39.76
482443,RU,Toksovo,1603851047,60.15,30.52,100,85,13.94,53.01
3145580,NO,Molde,1603851047,62.74,7.16,95,80,5.82,41
3145614,NO,Mo i Rana,1603850914,66.31,14.14,90,87,3.44,39.99
2126199,RU,Cherskiy,1603851047,68.75,161.3,100,93,8.12,15.03
3420768,GL,Qasigiannguit,1603851047,68.82,-51.19,94,61,1.77,14
3159016,NO,Borgen,1603851047,59.82,10.43,34,97,1.99,45
485639,RU,Svetogorsk,1603851047,61.11,28.86,100,96,9.89,51.01
519630,RU,Novaya Ladoga,1603851047,60.1,32.3,100,83,15.48,51.01
3135728,NO,Straumen,1603851047,63.87,11.3,0,100,6.93,43
3139148,NO,Hovin,1603851047,63.11,10.22,0,100,6.93,37
3418653,IS,Akranes,1603851048,64.32,-22.07,0,38,11.41,41
2123814,RU,Leningradskiy,1603851049,69.38,178.42,0,91,18.39,19.02
1492566,RU,Severo-Yeniseyskiy,1603851049,60.37,93.04,100,98,12.35,22.39
2121197,RU,Sinegor'ye,1603851049,62.08,150.48,3,84,1.48,22.55
1508894,RU,Borovoy,1603851049,55.43,86.08,20,59,17.9,37.4
5879400,US,Anchorage,1603850783,61.22,-149.9,90,80,4.7,34
464790,RU,Zapolyarnyy,1603851049,69.42,30.81,100,100,10.29,35.6
507899,RU,Podyuga,1603850879,61.09,40.86,100,89,10.54,42.6
653627,FI,Kauhajoki,1603851049,62.43,22.18,90,93,4.7,46.4
496285,RU,Severodvinsk,1603851049,64.56,39.83,90,93,6.71,44.6
2124611,RU,Kholodnyy,1603851049,62.72,147.95,68,87,1.92,12.78
5870133,US,Nome,1603851049,64.5,-165.41,90,86,4.7,33.8
648855,FI,Lapua,1603851049,62.97,23.01,100,95,3,46
474470,RU,Verkhnyaya Toyma,1603851049,62.23,45,100,94,7.36,40.06
3135020,NO,Svolvær,1603851049,68.23,14.57,21,85,3,37
3360934,ZA,Strand,1603851049,-34.11,18.83,75,87,10.29,59
508034,RU,Nikolskiy,1603851049,60.92,34.06,100,87,10.36,47.48
639734,FI,Rauma,1603851049,61.13,21.51,75,100,8.05,46.4
2121373,RU,Seymchan,1603851049,62.88,152.43,10,90,3.02,16.23
533690,RU,Luga,1603851050,58.74,29.85,100,86,11.9,51.24
509820,RU,Petrozavodsk,1603851051,61.78,34.35,100,81,11.18,51.8
3831208,GL,Qaanaaq,1603850755,77.48,-69.36,93,81,13.38,12.79
3421719,GL,Narsaq,1603851051,60.92,-46.05,100,80,2.35,30.2
5924351,CA,Clyde River,1603851051,70.47,-68.59,1,66,6.93,10.4
779554,NO,Honningsvåg,1603850977,70.98,25.97,100,73,12.12,41.45
780687,NO,Berlevåg,1603851051,70.86,29.09,100,79,12.1,38.91
3418910,GL,Upernavik,1603851051,72.79,-56.15,0,78,5.82,15.96
779622,NO,Havøysund,1603851051,71,24.66,100,76,9.17,32
705809,UA,Kirovsk,1603851051,48.64,38.64,7,63,13.65,44.56
779261,NO,Kjøllefjord,1603851051,70.95,27.35,100,82,6.46,36.3
780717,NO,Båtsfjord,1603851051,70.63,29.72,100,87,8.93,38.88
779082,NO,Lakselv,1603851051,70.05,24.97,100,92,17.22,30.2
779683,NO,Hammerfest,1603851051,70.66,23.68,99,77,9.17,32
778362,NO,Øksfjord,1603851051,70.24,22.35,0,92,2.24,32
777682,NO,Skjervøy,1603851051,70.03,20.97,64,65,8.05,42.66
847634,NO,Rypefjord,1603851051,70.63,23.67,98,79,9.17,32
778707,NO,Mehamn,1603851051,71.04,27.85,100,83,9.4,36.05
777073,NO,Vadsø,1603851051,70.07,29.75,100,100,10.29,35.6
777019,NO,Vardø,1603851052,70.37,31.11,100,93,13.58,42.13
2126123,RU,Chokurdakh,1603851052,70.63,147.92,100,97,4.65,12.97
1507390,RU,Dikson,1603851052,73.51,80.55,99,95,17.47,4.95
2022572,RU,Khatanga,1603851052,71.97,102.5,35,90,9.89,-6.48
2017155,RU,Saskylakh,1603851052,71.92,114.08,100,93,13.18,5.85
2015306,RU,Tiksi,1603851052,71.69,128.87,1,90,13.18,-3.17
5880054,US,Barrow,1603851002,71.29,-156.79,40,74,21.92,30.2
2013921,RU,Ust-Kuyga,1603851052,70.02,135.6,93,93,4.7,5.95
2729907,SJ,Longyearbyen,1603851052,78.22,15.64,75,86,2.24,30.2
