City_ID,Country,City,Date,Lat,Long,Cloudiness,Humidity,Wind_Speed,Temp_Max
3466704,BR,Castro,1604377000,-24.79,-50.01,72,87,11.12,52.45
3840092,AR,Puerto Madryn,1604377078,-42.77,-65.04,100,31,18.99,74.43
2206371,NZ,Levin,1604377244,-40.63,175.28,100,93,1.99,59
3874579,CL,Purranque,1604377244,-40.92,-73.17,1,93,2.24,50
3874960,CL,Port Montt,1604377244,-41.47,-72.94,40,93,1.74,44.6
3874787,CL,Punta Arenas,1604377244,-53.15,-70.92,0,75,4.7,48
2188164,NZ,Lower Hutt,1604377244,-41.22,174.92,100,93,10.29,57.99
2183406,NZ,Riwaka,1604377244,-41.08,173,100,88,3.24,55.99
2206369,NZ,Foxton,1604377244,-40.47,175.3,100,85,1.99,68
3833883,AR,Trelew,1604377244,-43.25,-65.31,100,18,26.87,81.91
2192828,NZ,Bulls,1604377244,-40.17,175.38,100,83,1.99,68
3839307,AR,Rawson,1604377244,-43.3,-65.1,100,26,16.98,77
2181133,NZ,Pareora,1604377244,-44.49,171.21,100,82,5.01,60.01
3833367,AR,Ushuaia,1604377244,-54.8,-68.3,20,81,4.7,46.4
2651520,GB,Darfield,1604377245,53.53,-1.38,0,78,4,43
2186895,NZ,Methven,1604377114,-43.63,171.65,100,74,1.99,57.99
3838859,AR,Río Gallegos,1604377245,-51.62,-69.22,40,66,6.93,53.6
2168943,AU,Devonport,1604377245,-41.17,146.35,68,76,7,70
2184707,NZ,Wanaka,1604377245,-44.7,169.15,80,46,0.51,63.86
965301,ZA,Edendale,1604377245,-29.65,30.31,1,95,3.38,62.01
2188444,NZ,Leeston,1604377245,-43.77,172.3,100,81,7,55
4794814,US,Wyndham,1604376994,37.7,-77.61,1,52,5.82,43
2192362,NZ,Christchurch,1604377176,-43.53,172.63,100,76,19.46,55.4
5780557,US,Riverton,1604377053,40.52,-111.94,1,52,4.7,50
2206895,NZ,Greymouth,1604377107,-42.47,171.2,100,94,5.28,53.13
2189947,NZ,Himatangi,1604377246,-40.4,175.32,100,85,1.99,68
2182867,NZ,Sefton,1604377246,-43.25,172.67,100,76,19.46,55.4
2206894,NZ,Hokitika,1604377246,-42.72,170.97,100,94,3.22,55.35
2184904,NZ,Te Horo,1604377246,-40.81,175.12,100,93,1.99,59
2186280,NZ,Nelson,1604377246,-41.28,173.28,100,88,3.94,55.99
2183774,NZ,Ranfurly,1604377246,-45.13,170.1,98,69,1.99,59
5150651,US,Clyde,1604377246,41.3,-82.98,83,47,1.99,41
7281807,AU,Seddon,1604377246,-37.81,144.89,66,33,18.34,87.01
3832899,AR,Viedma,1604377225,-40.81,-63,100,47,5.01,70
2184397,NZ,Porirua,1604377247,-41.13,174.85,100,89,4,57.99
4463810,US,Dobson,1604377247,36.4,-80.72,1,86,4.74,37
6331908,US,Milton,1604377247,34.13,-84.3,1,48,3.36,41
2183824,NZ,Rakaia,1604377247,-43.75,172.02,100,86,4,57.99
2179537,NZ,Wellington,1604377208,-41.29,174.78,100,93,10.29,55.99
2189529,NZ,Invercargill,1604377247,-46.4,168.35,0,65,11.01,60.01
4845585,US,Westport,1604377168,41.14,-73.36,1,52,14.99,41
4951594,US,Southbridge,1604377247,42.08,-72.03,28,47,1.99,34
2192964,NZ,Brightwater,1604377247,-41.38,173.12,100,88,1.83,55.99
2186377,NZ,Murchison,1604377247,-41.8,172.33,100,86,2.95,52.21
2208248,NZ,Balclutha,1604377247,-46.23,169.75,0,70,7,62.01
2183310,NZ,Rolleston,1604377247,-43.58,172.38,100,76,19.46,55.4
2185296,NZ,Otautau,1604377247,-46.15,168,0,65,11.01,60.01
2178982,NZ,Woodend,1604377247,-43.32,172.67,100,76,19.46,55.4
3899695,CL,Ancud,1604377187,-41.87,-73.82,75,93,2.24,51.01
2185018,NZ,Palmerston North,1604377247,-40.35,175.62,100,85,1.99,68
2163355,AU,Hobart,1604377057,-42.88,147.33,0,29,12.75,89.01
2193747,NZ,Athenree,1604377247,-37.47,175.92,97,86,7,66
2166368,AU,Forbes,1604377247,-33.38,148.02,96,27,1.99,84.99
2185245,NZ,Otorohanga,1604377248,-38.18,175.2,100,62,11.99,71.01
3361934,ZA,Saldanha,1604377248,-33.01,17.94,78,77,8.05,60.8
3443758,UY,Artigas,1604377248,-30.4,-56.47,0,86,11.41,55.22
5335650,US,Ceres,1604377248,37.59,-120.96,1,62,4.34,64
3441702,UY,Melo,1604377248,-32.37,-54.18,10,94,5.06,50.81
2147714,AU,Sydney,1604377228,-33.87,151.21,20,56,12.75,72
3871336,CL,Santiago,1604377228,-33.46,-70.65,0,71,6.93,63
3435261,AR,Concordia,1604377249,-31.39,-58.02,0,67,3,61
2170577,AU,Cooma,1604377249,-36.23,149.13,1,37,5.82,71.6
932183,LS,Quthing,1604377249,-30.4,27.7,0,49,2.35,59.88
3837213,AR,San Juan,1604377209,-31.54,-68.54,0,25,15.77,74.3
3895061,CL,Chimbarongo,1604377249,-34.7,-71.05,10,82,4.7,57.2
3441575,UY,Montevideo,1604377214,-34.83,-56.17,0,72,10.29,59
2177671,AU,Armidale,1604377249,-30.52,151.65,0,28,5.41,71.24
3430443,AR,Necochea,1604377249,-38.55,-58.74,0,80,7,54
3832791,AR,Villa Carlos Paz,1604377249,-31.42,-64.5,2,54,4.68,66.99
950709,ZA,Swellendam,1604377249,-34.02,20.44,7,93,6.93,62.6
3876664,CL,Penco,1604377249,-36.73,-72.98,57,87,8.05,55.4
2189630,NZ,Hunterville,1604377249,-39.93,175.57,100,83,1.99,68
963516,ZA,Queenstown,1604377249,-31.9,26.88,25,79,2.82,58.01
2145554,AU,Ulladulla,1604377250,-35.35,150.47,20,56,12.75,73
3893894,CL,Concepción,1604377250,-36.83,-73.05,13,87,8.05,55.4
3870294,CL,Talca,1604377227,-35.43,-71.67,1,82,4.7,57.2
2065665,AU,Mount Barker,1604377250,-35.07,138.87,53,22,7,93
2164837,AU,Goulburn,1604377032,-34.75,149.72,0,51,1.01,75
3870282,CL,Talcahuano,1604377250,-36.72,-73.12,64,87,8.05,55.4
2191451,NZ,Edgecumbe,1604377250,-37.98,176.83,94,82,5.01,64
3451138,BR,Rio Grande,1604377090,-32.03,-52.1,32,84,9.98,60.4
1688859,PH,San Nicolas,1604377250,18.17,120.6,40,74,12.75,86
2058430,AU,Whyalla,1604377250,-33.03,137.58,10,13,20.8,98.6
2169068,AU,Deniliquin,1604377129,-35.53,144.97,13,26,9.84,86.18
2184564,NZ,Piopio,1604377250,-38.47,175.02,100,62,11.99,71.01
3896774,CL,Carahue,1604377250,-38.7,-73.17,67,89,1.79,47.32
3873775,CL,Rancagua,1604377002,-34.17,-70.74,0,86,1.66,55.04
976361,ZA,Middelburg,1604377250,-25.78,29.46,21,66,3.04,60.89
2156404,AU,Mudgee,1604377250,-32.59,149.59,65,38,8.05,75.2
2143285,AU,Wodonga,1604377250,-36.12,146.88,44,54,5.82,82.99
3439525,UY,Young,1604377250,-32.68,-57.63,0,89,5.84,53.58
3464547,BR,Dom Pedrito,1604377031,-30.98,-54.67,78,90,6.46,54.16
939676,ZA,Willowmore,1604377251,-33.29,23.49,0,65,3.24,62.22
3881276,CL,Lota,1604376981,-37.08,-73.17,14,87,8.05,55.4
2074865,AU,Carnarvon,1604377251,-24.87,113.63,0,47,19.46,77
3902377,BO,La Santisima Trinidad,1604377251,-14.83,-64.9,34,45,2.04,78.75
964420,ZA,Port Elizabeth,1604377252,-33.92,25.57,20,93,14.99,64.4
1005781,ZA,Elliot,1604377252,-31.33,27.85,0,54,6.26,56.01
2537763,MA,Salé,1604377252,34.04,-6.82,40,100,4.7,55.4
3874096,CL,Quilpué,1604377252,-33.05,-71.45,90,93,3.04,51.8
2171845,AU,Cessnock,1604377252,-32.83,151.35,12,56,1.01,72
3467530,BR,Canela,1604377252,-29.37,-50.82,1,95,3.36,55.99
1017780,ZA,Boksburg,1604377252,-26.21,28.26,59,82,8.68,60.01
3448257,BR,São Sebastião,1604377144,-23.76,-45.41,58,73,4.41,63.95
1058381,MG,Morondava,1604377252,-20.28,44.28,23,71,4.83,77.34
2172880,AU,Byron Bay,1604377082,-28.65,153.62,40,60,20.8,73
3448877,BR,São João de Meriti,1604377252,-22.8,-43.37,75,72,2.24,66.2
3455908,BR,Oliveira,1604377048,-20.7,-44.83,27,89,10.63,55.44
3457509,BR,Matão,1604377252,-21.6,-48.37,0,70,9.53,59.68
3469115,BR,Braço do Norte,1604377252,-28.27,-49.17,96,85,1.83,56.48
886763,ZW,Masvingo,1604377252,-20.06,30.83,99,69,5.99,66.33
3471697,BR,Araucária,1604377252,-25.59,-49.41,75,93,5.82,54
3901501,BO,Villazón,1604377252,-22.09,-65.59,1,64,9.17,44.4
933633,BW,Khudumelapye,1604377253,-23.88,24.75,100,75,7.56,65.07
3471910,BR,Apucarana,1604377253,-23.55,-51.46,0,59,11.41,68
6322227,BR,Embu-Guaçu,1604377253,-23.85,-46.84,0,71,6.93,55.4
3457809,BR,Maravilha,1604377253,-26.76,-53.17,0,55,20.8,62.6
934753,MU,Beau Vallon,1604377253,-20.42,57.7,40,64,13.87,75.2
932416,LS,Mokhotlong,1604377253,-29.29,29.07,0,61,1.48,50.77
3459712,BR,Araquari,1604377032,-26.37,-48.72,82,92,0.51,59
3694112,PE,Paita,1604377253,-5.09,-81.11,73,89,8.28,61.56
3472969,BR,Aguaí,1604377253,-22.06,-46.98,0,82,2.28,56.28
934778,MU,Bambous,1604377253,-20.26,57.41,40,64,13.87,75.2
4035715,CK,Avarua,1604377253,-21.21,-159.78,100,73,17.22,75.2
934750,MU,Bel Air Rivière Sèche,1604377253,-20.25,57.75,40,64,13.87,75.2
2138103,NC,Thio,1604377253,-21.62,166.22,90,65,8.05,82.4
933288,BW,Mopipi,1604377254,-21.18,24.88,100,56,9.62,73.76
3459855,BR,Joanópolis,1604377254,-22.93,-46.28,75,59,3.36,60.8
933692,BW,Kang,1604377254,-23.68,22.79,99,55,12.8,69.89
3438755,PY,Cecilio Baez,1604377254,-25.05,-56.32,68,59,1.95,67.55
3470177,BR,Bela Vista,1604377254,-22.11,-56.52,37,64,1.88,67.03
995202,ZA,Howick,1604377254,-29.48,30.23,2,95,4.74,62.01
952747,ZA,Standerton,1604377254,-26.93,29.24,4,97,1.01,55.99
3457776,BR,Mar de Espanha,1604377255,-21.87,-43.01,95,93,0.47,58.21
4705564,US,Laureles,1604377255,26.11,-97.49,40,72,3.36,64.4
3470003,BR,Biguaçu,1604377255,-27.49,-48.66,75,77,1.5,64.4
1015694,ZA,Breyten,1604377255,-26.3,29.99,90,100,8.05,55.4
3835869,AR,Santiago del Estero,1604377255,-27.8,-64.26,0,37,6.69,68.34
3472234,BR,Angatuba,1604377255,-23.49,-48.41,0,81,4.97,50.97
3436617,PY,Yegros,1604377255,-26.45,-56.4,49,60,4.9,63.19
3445433,BR,Vassouras,1604377255,-22.4,-43.66,40,88,3.36,66.2
3448639,BR,São José do Rio Preto,1604377179,-20.82,-49.38,0,45,11.41,66.2
3452237,BR,Promissão,1604377255,-21.54,-49.86,0,67,12.1,62.15
3451152,BR,Rio do Sul,1604377255,-27.21,-49.64,60,90,1.19,62.01
3437653,PY,Colonia Nueva Germania,1604377255,-23.9,-56.57,26,71,2.06,67.86
3455036,BR,Paraty,1604377255,-23.22,-44.71,92,75,2.95,62.33
933777,BW,Gabane,1604377255,-24.67,25.78,90,100,5.82,62.6
3438743,PY,Edelira,1604377255,-26.75,-55.27,63,61,2.71,60.96
3453896,BR,Pilar do Sul,1604377255,-23.81,-47.72,0,86,5.46,50.04
3919720,BO,Colquechaca,1604377255,-18.67,-66.02,67,98,5.99,32.47
3472245,BR,Andrelândia,1604377255,-21.74,-44.31,19,93,3.42,50.07
3925863,PE,Yanacancha,1604377255,-10.24,-76.65,95,77,1.61,42.85
3939459,PE,Huancayo,1604376972,-12.07,-75.23,80,68,1.74,53.24
6301965,AU,Howard Springs,1604377256,-12.5,131.05,20,55,11.41,99
925789,MW,Mulanje,1604377256,-16.03,35.5,20,69,2.62,75.2
4328254,US,Iberia,1604377256,29.95,-91.75,1,70,3.36,51.01
227592,UG,Katete,1604377256,-0.78,29.75,90,78,3.42,59.83
3466641,BR,Pojuca,1604377257,-12.42,-38.33,90,88,13.87,77
3462383,BR,Goianápolis,1604377257,-16.51,-49.02,0,60,6.93,71.6
916246,ZM,Kabompo,1604377257,-13.59,24.2,78,50,4.07,69.19
1073482,MG,Anjozorobe,1604377257,-18.4,47.87,20,67,5.82,62.6
3350372,AO,Catabola,1604377257,-12.15,17.28,99,92,1.48,62.53
933077,BW,Shakawe,1604377257,-18.37,21.85,96,58,5.95,68.52
921889,KM,Fomboni,1604377257,-12.28,43.74,31,79,14.23,78.26
1070940,MG,Fenoarivo,1604377257,-18.93,47.44,20,67,5.82,62.6
4034908,WS,Vaitele,1604377257,-13.82,-171.8,40,66,12.75,91.4
3453025,BR,Ponto Novo,1604377257,-10.86,-40.13,100,90,5.86,71.56
1049261,MZ,Chimoio,1604377257,-19.12,33.48,75,94,1.57,68
3456115,BR,Nova Soure,1604377257,-11.23,-38.48,100,93,8.08,72.09
3453586,BR,Piranhas,1604377257,-16.43,-51.82,3,49,6.82,71.29
931755,MW,Blantyre,1604377257,-15.79,35.01,20,69,4.79,75.2
3836669,AR,San Rafael,1604377258,-34.62,-68.33,61,25,5.95,70.56
3111158,ES,Sada,1604377258,43.36,-8.26,75,71,8.05,57
3460813,BR,Itambé,1604377258,-15.24,-40.62,100,92,4.56,65.57
3467577,BR,Canavieiras,1604377258,-15.68,-38.95,100,92,9.19,70.54
3934608,PE,Moquegua,1604377258,-17.2,-70.94,5,71,0.31,53.91
3465342,BR,Corumbá,1604377258,-19.01,-57.65,31,61,3.22,72.86
1056386,MG,Soanierana Ivongo,1604377258,-16.92,49.58,68,73,5.84,72.14
923058,CD,Kambove,1604377258,-10.88,26.6,0,84,2.89,61.48
2520610,ES,Caceres,1604377258,39.52,-6.37,100,96,5.01,59
927967,MW,Lilongwe,1604377258,-13.97,33.79,0,68,9.17,69.8
4035236,WS,Malie,1604377258,-13.8,-171.85,40,66,12.75,91.4
3465767,BR,Conceição da Feira,1604377258,-12.51,-39,100,95,3.62,69.85
1058532,MG,Moramanga,1604377258,-18.93,48.2,91,67,1.92,62.71
3348313,AO,Huambo,1604377258,-12.78,15.74,99,93,2.89,61.32
3468349,BR,Caculé,1604377258,-14.5,-42.22,100,94,7.76,64.67
3461565,BR,Ibirataia,1604377258,-14.07,-39.64,100,96,2.75,68.11
878121,TZ,Mahuta,1604377258,-10.87,39.45,16,89,3.58,68.7
877925,TZ,Mingoyo,1604377258,-10.1,39.63,14,77,0.6,75.52
3936952,PE,La Oroya,1604377258,-11.52,-75.9,91,65,3.42,47.68
3461153,BR,Ipaba,1604377259,-19.41,-42.42,99,91,2.37,65.79
3458778,BR,Laranjeiras,1604377259,-10.81,-37.17,75,83,3.36,77
884141,ZW,Norton,1604377259,-17.88,30.7,6,67,5.99,66
1082243,MG,Ambilobe,1604377259,-13.2,49.05,0,52,5.26,77.09
3927758,PE,Acobamba,1604377260,-11.35,-75.66,98,69,2.91,53.92
3933185,PE,Pampas,1604377260,-12.4,-74.9,86,81,4.03,50.2
3455161,BR,Pará de Minas,1604377260,-19.86,-44.61,40,59,10.29,66.2
909887,ZM,Luangwa,1604377260,-15.62,30.42,93,61,4.74,78.8
1634010,ID,Ngoro,1604377260,-7.68,112.26,56,59,2.26,88.77
202239,RW,Gikongoro,1604377260,-2.46,29.57,99,86,0.72,57.33
3466696,BR,Catalão,1604377260,-18.17,-47.95,2,86,3.09,63.46
1645220,ID,Driyorejo,1604377260,-7.37,112.62,63,53,8.79,89.91
3397763,BR,Jacareacanga,1604377260,-6.22,-57.75,75,89,0.78,73.56
156124,TZ,Kyaka,1604377260,-1.25,31.42,96,71,0.94,62.17
3692747,PE,Salaverry,1604377260,-8.23,-78.97,98,86,6.6,60.35
150689,TZ,Poli,1604377260,-3.33,36.8,75,88,6.93,68
2095925,PG,Ialibu,1604377260,-6.28,143.99,96,95,3.11,63.82
2317397,CD,Bandundu Province,1604377260,-3.32,17.37,74,93,1.83,71.44
1646170,ID,Cirebon,1604377260,-6.71,108.56,1,52,5.08,89.28
1624668,ID,Tarub,1604377260,-6.93,109.17,2,57,0.92,88.25
3696057,PE,Juanjuí,1604377261,-7.18,-76.73,99,64,1.16,76.23
3651251,EC,Saquisilí,1604377261,-0.83,-78.67,0,70,4.7,44.6
1627253,ID,Sidoarjo,1604377261,-7.45,112.72,12,57,7.83,88.11
3407755,BR,Amarante do Maranhão,1604377065,-5.57,-46.74,100,92,1.48,72.32
3389321,BR,Santa Rita,1604377261,-7.11,-34.98,40,88,4.7,77
3384983,BR,Vitorino Freire,1604377261,-4.07,-45.17,87,85,2.26,77.29
3398691,BR,Gravatá,1604377261,-8.2,-35.56,86,84,3.18,71.29
158321,TZ,Karema,1604377261,-6.82,30.44,99,59,6.69,75.72
3405616,BR,Boa Viagem,1604377157,-5.13,-39.73,79,74,5.5,76.82
2312249,CD,Mushie,1604377262,-3.02,16.9,100,89,1.25,71.65
484670,RU,Taman',1604377262,45.21,36.72,82,87,6.71,51.8
3662395,BR,Santo Antônio do Içá,1604377262,-3.1,-67.94,91,95,1.03,74.43
3395336,BR,Maribondo,1604377262,-9.58,-36.31,75,88,8.05,77
155405,TZ,Mafinga,1604377262,-7.25,35.07,10,74,3.42,64.8
3691161,PE,Túcume,1604377262,-6.51,-79.86,75,86,7.02,60.8
1645524,ID,Depok,1604377262,-6.4,106.82,40,55,4.7,91.99
3404862,BR,Brejo da Madre de Deus,1604377262,-8.15,-36.37,99,82,4.45,70.92
3393536,BR,Olinda,1604377262,-8.01,-34.86,40,74,5.82,80.6
3698705,PE,Cascas,1604377262,-7.48,-78.82,97,63,1.03,58.28
3402000,BR,Codó,1604377262,-4.46,-43.89,100,95,2.68,75.04
3391130,BR,Puxinanã,1604377263,-7.16,-35.96,40,88,9.17,73.4
160172,TZ,Dongobesh,1604377263,-4.07,35.38,86,89,9.55,56.55
3394018,BR,Natuba,1604377263,-7.64,-35.55,40,88,9.17,73.4
3814639,PE,Papayal,1604377263,-4.08,-80.74,44,76,3.47,64.35
3404713,BR,Buriti dos Lopes,1604377263,-3.17,-41.87,84,87,3.13,76.55
154654,TZ,Masumbwe,1604377263,-3.63,32.18,59,62,4.7,69.46
2083537,PG,Wewak,1604377263,-3.55,143.63,48,64,6.87,86.77
1648082,ID,Boyolangu,1604377224,-8.12,111.89,65,67,6.17,84.87
1632998,ID,Pamanukan,1604377263,-6.28,107.81,0,50,3.36,91.35
3397277,BR,João Pessoa,1604377209,-7.12,-34.86,40,88,4.7,77
3397675,BR,Jaguaribe,1604377263,-5.89,-38.62,66,75,4.79,77.9
3392734,BR,Paulo Afonso,1604377263,-9.41,-38.21,100,83,3.49,74.43
191245,KE,Kisumu,1604377263,-0.1,34.76,75,88,5.06,66.2
3385920,BR,Tupanatinga,1604377263,-8.75,-37.34,100,90,7.31,70.41
3659544,EC,Alamor,1604377263,-4.02,-80.02,79,93,2.46,55.22
3405870,BR,Belém,1604377263,-1.46,-48.5,0,88,8.05,78.8
2398430,GA,Mimongo,1604377263,-1.62,11.61,38,95,0.58,67.77
1693104,PH,Polo,1604377263,9.48,123.18,75,70,9.17,89.6
3392907,BR,Pastos Bons,1604377263,-6.6,-44.08,100,93,2.57,72.99
1735506,MY,Kepala Batas,1604377263,5.52,100.43,20,78,3.36,82.4
229746,UG,Luwero,1604377264,0.85,32.47,100,92,1.03,64.71
3675191,CO,Marulanda,1604377264,5.28,-75.26,32,93,3.06,49.73
1256558,IN,Shertallai,1604377264,9.7,76.33,40,88,4.7,78.8
1690666,PH,Samal,1604377264,7.07,125.71,75,66,4.7,87.8
1723963,PH,Bood,1604377264,9.75,123.83,75,66,10.29,87.8
3680453,CO,Istmina,1604377265,5.16,-76.68,53,95,1.57,73.11
3706567,PA,Las Cumbres,1604377265,9.08,-79.53,74,88,5.82,78.8
3674654,CO,Mocoa,1604377265,1.15,-76.65,87,74,5.01,69.13
3714939,PA,Alanje,1604377265,8.4,-82.55,100,87,8.3,80.01
2325249,NG,Oyan,1604377265,8.05,4.77,86,89,0.74,70.36
3713499,PA,Caimitillo,1604377265,9.15,-79.53,75,94,12.75,78.8
2886242,DE,Cologne,1604376990,50.93,6.95,20,71,11.41,53.01
2325161,NG,Ozubulu,1604377265,5.96,6.85,90,97,2.57,72.72
3674885,CO,Melgar,1604377265,4.2,-74.64,32,71,3.29,74.3
1819729,HK,Hong Kong,1604377247,22.29,114.16,10,63,3,77
1733023,MY,Kuala Lipis,1604377265,4.18,102.05,100,61,1.48,88.12
1735459,MY,Teluk Anson,1604377265,4.03,101.02,40,88,2.24,82.4
1698289,PH,Pundaguitan,1604377265,6.37,126.17,95,73,5.86,83.41
1750500,MY,Permatang Kuching,1604377265,5.46,100.38,20,78,3.36,82.4
3689697,CO,Arboledas,1604377265,7.64,-72.8,88,71,2.28,68.5
3667873,CO,Sogamoso,1604377266,5.71,-72.93,96,85,1.45,52.57
4205615,US,Liberty,1604377266,31.83,-81.5,1,93,1.72,44.01
2293342,CI,Adzopé,1604377266,6.11,-3.86,61,98,1.48,71.64
2338876,NG,Ifo,1604376977,6.81,3.2,97,89,2.71,75.63
2295684,GH,Salaga,1604376969,8.55,-0.52,28,80,3.36,75.96
3623716,CR,La Fortuna,1604377266,10.47,-84.65,100,86,6.24,73.27
2274895,LR,Monrovia,1604377266,6.3,-10.8,9,86,2.59,77.32
3675252,CO,Mariquita,1604377266,5.2,-74.89,91,83,3.2,70.56
2284647,CI,Man,1604377266,7.41,-7.55,3,92,1.63,69.62
1706282,PH,Linan,1604377266,6.43,124.98,75,62,4.7,87.8
2392897,BJ,Lokossa,1604377266,6.64,1.72,74,95,1.7,73.8
3177547,IT,Dolo,1604377266,45.43,12.07,77,92,3.62,53.01
1705105,PH,Luna,1604377266,10.97,123.23,100,73,10.83,85.08
2332504,NG,Lafiagi,1604377267,8.87,5.42,64,65,1.05,75.29
2289983,CI,Dimbokro,1604377267,6.65,-4.7,28,97,2.28,71.96
2339354,NG,Ibadan,1604377031,7.39,3.9,73,94,0.87,71.98
2294086,GH,Wankyi,1604377267,7.74,-2.1,69,95,2.98,70.45
3641351,VE,El Tigre,1604377267,8.89,-64.25,86,90,9.82,71.02
2350886,NG,Aku,1604377267,6.71,7.32,94,92,1.43,71.1
2327735,NG,Ogbomosho,1604377267,8.13,4.25,90,89,1.01,71.53
1717103,PH,Columbio,1604377267,6.7,124.94,100,65,4.05,87.17
3667023,CO,Titiribí,1604377268,6.06,-75.79,75,93,2.24,60.8
1735022,MY,Temerloh,1604377268,3.45,102.42,100,79,3.38,82.92
1250161,LK,Batticaloa,1604377268,7.71,81.69,1,69,6.31,83.84
2324767,NG,Potiskum,1604377268,11.71,11.07,70,30,8.97,74.01
1685422,PH,Sulangan,1604377268,11.14,123.72,100,71,6.76,83.32
3861966,AR,Cervantes,1604377268,-39.05,-67.38,0,25,8.05,77
1692318,PH,Putiao,1604377268,13.02,123.71,100,68,6.15,86.22
1611108,TH,Chon Buri,1604377268,13.3,101.3,0,60,9.98,90
3604503,HN,Namasigüe,1604377268,13.2,-87.14,100,83,2.82,75.74
1721577,PH,Cabiraoan,1604377268,18.32,122.09,100,87,7.76,77.95
3530123,MX,Coyotepec,1604377268,19.77,-99.21,5,53,11.41,50
1276491,IN,Beltangadi,1604377268,13.98,75.3,1,66,7.94,77.16
3526473,MX,Jocotitlán,1604377268,19.71,-99.79,5,91,9.17,44.6
1704070,PH,Magalalag,1604377269,17.58,121.74,100,79,10.25,82.09
1692193,PH,Tayuman,1604377269,14.51,121.16,40,62,6.93,91
1723481,PH,Buenavista,1604377269,8.98,125.41,100,58,5.14,89.13
3588476,GT,Tecpán Guatemala,1604377269,14.77,-90.99,40,68,18.34,64.4
1263370,IN,Mātherān,1604377269,18.98,73.27,20,48,3.27,86
1713850,PH,Entablado,1604377269,15.29,120.87,90,70,4.7,87.8
1610503,TH,Kaeng Khoi,1604377269,14.59,101,0,64,7,86
1261853,IN,Narasannapeta,1604377269,18.42,84.05,6,69,5.12,83.62
1275388,IN,Bodinayakkanur,1604377269,10.02,77.35,11,65,3.98,81.99
1707233,PH,Larap,1604377270,14.3,122.65,100,79,2.93,84.07
1716834,PH,Coron,1604377270,12,120.2,100,72,7.34,84.58
4155751,US,Florida,1604377270,28.75,-82.5,1,71,5.82,53.6
3929631,PE,San Isidro,1604377270,-12.12,-77.05,75,82,8.05,62.6
2444219,NE,Gouré,1604377270,13.98,10.27,91,31,5.01,75
4003703,MX,Jungapeo de Juárez,1604377270,19.45,-100.48,8,65,1.99,55.99
1687868,PH,Santa Rosa Sur,1604377270,14.26,122.72,100,79,2.48,84.58
1693620,PH,Subaan,1604377270,13.08,121.36,100,81,4,84.99
2445488,NE,Dosso,1604377270,13.05,3.19,19,26,7.31,76.46
3526927,MX,Hueytamalco,1604377270,19.95,-97.27,78,68,3.11,60.28
1726979,PH,Bantog,1604377270,16.01,120.69,100,62,6.24,88.25
1254089,IN,Tumkūr,1604377271,13.34,77.1,20,78,4.7,82
1273800,IN,Kadapa,1604377271,14.47,78.82,0,74,3.09,80.6
2460546,ML,Banamba,1604377271,13.55,-7.45,2,30,4.03,71.02
3605950,HN,Liure,1604377271,13.54,-87.09,90,88,9.17,66.2
3615730,NI,Waspán,1604377271,14.74,-83.97,100,96,21.41,75.54
3428068,AR,San Vicente,1604377271,-26.62,-54.13,69,68,2.98,58.19
1261957,IN,Nandikotkūr,1604377271,15.87,78.27,0,63,4.45,81.61
1687291,PH,Sapang Buho,1604377271,15.59,121.12,99,64,2.51,87.42
1253133,IN,Virār,1604377272,19.47,72.8,20,54,4.7,86
3576765,LC,Dennery,1604377271,13.9,-60.89,20,69,20.8,82.4
1703372,PH,Malabago,1604377272,15.97,120.35,96,66,8.05,87.33
1277557,IN,Ballarpur,1604377272,19.83,79.35,0,55,4.83,75.69
5392171,US,San Jose,1604376995,37.34,-121.89,40,63,5.82,64
1715636,PH,Dao,1604377272,11.39,122.69,100,71,5.57,86.9
1272864,IN,Dhārchula,1604377027,29.85,80.53,0,24,3.83,70
1727073,PH,Bansud,1604377272,12.87,121.46,100,73,8.61,85.19
3724439,HT,Grande Rivière du Nord,1604377272,19.58,-72.18,100,87,3.11,75.96
1277939,IN,Bagaha,1604377272,27.1,84.08,69,48,6.85,77.2
1256050,IN,Sirsāganj,1604377272,27.05,78.7,0,19,5.03,76.44
1258126,IN,Rishra,1604377272,22.71,88.35,10,65,6.93,82.4
2511174,ES,Santa Cruz de Tenerife,1604377272,28.47,-16.25,75,88,9.17,69.01
1166164,PK,Sanghar,1604377273,26.05,68.95,0,67,4.7,62.6
4003211,MX,La Cañada,1604377273,20.62,-100.32,5,70,9.17,46.4
1272768,IN,Dhing,1604377273,26.47,92.47,53,80,4.85,79.75
1274536,IN,Chatrā,1604377273,24.22,84.87,3,60,6.2,73.4
1263528,IN,Marhaura,1604377273,25.97,84.87,40,56,4.7,69.8
1261378,IN,Nīmāj,1604377273,26.15,74,0,17,5.39,78.44
1274237,IN,Chikhli,1604377273,20.35,76.25,0,43,7.27,77.14
1270336,IN,Haringhāta,1604377273,22.95,88.57,5,65,6.93,82.4
4012957,MX,Contepec,1604377273,20.02,-100.12,5,70,9.17,55.99
3526601,MX,Jalpan,1604377273,21.23,-99.48,47,63,1.54,60.22
1262574,IN,Mūl,1604377273,20.07,79.67,3,58,5.39,76.93
3987500,MX,San Buenaventura,1604377273,27.08,-101.53,9,45,3,63
1258637,IN,Ramnagar,1604377273,29.4,79.12,0,46,2.71,74.93
3528788,MX,El Llano,1604377273,20.05,-99.3,40,77,3.09,45.18
1262891,IN,Mohgaon,1604377274,21.65,78.72,0,38,6.15,78.46
3995010,MX,Nazareno,1604377274,25.38,-103.42,5,36,3.51,64.4
1258584,IN,Rāmpura,1604377274,30.25,75.23,0,17,3.71,75.99
1273756,IN,Daboh,1604377274,26,78.88,0,19,5.06,77.41
1269843,IN,Hyderabad,1604377274,17.38,78.47,0,65,3.36,79
1268510,IN,Kālāgarh Project Colony,1604377274,29.5,78.75,0,48,3.94,72.37
4169156,US,Port Orange,1604377274,29.14,-81,40,63,14.99,66.99
102318,SA,Sayhāt,1604377275,26.49,50.04,0,68,3.36,68
1264351,IN,Mahroni,1604377275,24.59,78.73,0,20,3.62,78.03
1266622,IN,Khunti,1604377275,23.08,85.28,0,43,5.82,71.6
1264433,IN,Mahārāganj,1604377275,27.13,83.57,63,40,8.16,76.08
1268011,IN,Kannauj,1604377275,27.05,79.92,0,19,5.75,76.86
3996647,MX,Mapimí,1604377275,25.82,-103.85,5,36,7.54,64.4
1267675,IN,Kārsiyāng,1604377275,26.88,88.28,15,81,3.78,67.33
1267154,IN,Khajuraho,1604377275,24.85,79.93,0,67,3.2,60.8
3174050,IT,Province of Mantua,1604377205,45.17,10.78,5,96,1.23,55
1176608,PK,Islamkot,1604377114,24.7,70.18,0,17,5.08,82.2
1258876,IN,Sardarpur,1604377276,22.68,74.95,3,22,6.13,78.06
1278923,IN,Amānganj,1604377276,24.43,80.03,0,67,1.83,60.8
3995465,MX,Monterrey,1604377276,25.67,-100.32,5,51,4.7,64.99
3981345,MX,Topolobampo,1604377276,25.6,-109.05,5,65,0.98,77
1273637,IN,Dalmau,1604377276,26.07,81.03,0,22,6.49,77.38
1850108,JP,Tomigusuku,1604377276,26.18,127.67,40,61,28.86,78.8
4146429,US,Aventura,1604377276,25.96,-80.14,90,64,16.11,75
1806408,CN,Yangjiang,1604377252,21.85,111.97,27,51,12.5,79
4001597,MX,La Lira,1604377276,20.47,-100.15,5,70,9.17,46.4
1276634,IN,Beāwar,1604377016,26.1,74.32,0,16,4.38,78.19
4168228,US,Pensacola,1604377082,30.42,-87.22,1,47,10.29,57.99
1863440,JP,Musashimurayama,1604377276,35.76,139.39,75,55,9.17,66.2
2522890,IT,Tortolì,1604377276,39.93,9.66,5,82,12.75,60.8
1253628,IN,Uttarkāshi,1604376982,30.73,78.45,0,24,2.84,71.8
2525573,IT,Belmonte Mezzagno,1604377276,38.05,13.39,6,74,3,62.01
6541973,IT,Pozzallo,1604377276,36.73,14.85,0,100,5.82,55
5097529,US,Edison,1604377276,40.52,-74.41,1,48,6.93,39.2
5378566,US,Oakley,1604377276,38,-121.71,0,49,4.07,66.99
294068,IL,Netivot,1604377277,31.42,34.59,16,78,4.79,66
114593,IR,Susa,1604377277,32.19,48.24,0,24,4.18,69.55
1808931,CN,Hangu,1604377277,39.25,117.79,0,18,11.18,51.8
734256,GR,Rapsani,1604377277,39.9,22.55,75,93,1.39,54
5357155,US,Hillsborough,1604377277,37.57,-122.38,20,82,20.8,64.4
5412199,US,Arvada,1604377277,39.8,-105.09,5,17,9.17,57.2
5525042,US,Levelland,1604377208,33.59,-102.38,40,43,8.05,55.4
4758041,US,Fairfax,1604377208,38.85,-77.35,20,51,5.82,41
360630,EG,Cairo,1604376944,30.06,31.25,0,72,5.1,64.4
1254198,IN,Trāl,1604377278,33.93,75.1,0,33,2.93,57.52
4657077,US,Shelbyville,1604377278,35.48,-86.46,0,86,3.36,33.8
4470778,US,Hickory,1604377278,35.73,-81.34,1,44,4.68,39.2
4636285,US,Lenoir City,1604377278,35.8,-84.26,98,76,2.62,37.99
1851282,JP,Tadotsu,1604377278,34.27,133.75,40,48,13.87,62.6
4557109,US,Chambersburg,1604377084,39.94,-77.66,27,55,1.99,39
262383,GR,Fyteíes,1604377278,38.7,21.18,20,87,2.3,59
5467024,US,Española,1604377192,35.99,-106.08,1,30,4.7,57.2
2507480,DZ,Algiers,1604377022,36.75,3.04,20,100,3.98,48.2
1794806,CN,Shizuishan,1604377278,39.23,106.77,0,42,5.93,47.34
247068,JO,Sakib,1604377278,32.28,35.81,3,77,1.5,60.8
136014,IR,Gachsaran,1604377278,30.36,50.8,0,24,2.19,59
1798425,CN,Puyang,1604377278,29.46,119.89,13,54,9.24,63.25
2563020,MT,Gudja,1604377279,35.85,14.5,75,88,4.7,64
2520456,ES,Campanario,1604377279,38.86,-5.62,100,77,0.74,59.52
2110891,JP,Takahata,1604377279,38,140.19,40,76,11.41,66.99
5415035,US,Broomfield,1604377204,39.92,-105.09,5,17,9.17,57.2
2112141,JP,Kōriyama,1604377279,37.4,140.38,75,51,12.75,61
4413595,US,Warrensburg,1604377257,38.76,-93.74,1,79,5.82,51.01
4882920,US,Addison,1604377279,41.93,-87.99,1,45,10.29,45
4397962,US,Mehlville,1604377205,38.51,-90.32,1,48,7.96,46
1853662,JP,Ōtake,1604377279,34.2,132.22,40,32,14.99,66.2
1926004,JP,Sennan,1604377279,34.36,135.28,20,55,8.05,66
4013708,MX,Ciudad Juárez,1604376995,31.73,-106.48,40,33,5.82,68
4589387,US,North Charleston,1604377280,32.89,-80.01,1,81,1.59,42.8
5383465,US,Pittsburg,1604377280,38.03,-121.88,1,42,4.7,66.99
5338196,US,Coalinga,1604377280,36.14,-120.36,20,38,3.36,66.2
4357617,US,Havre de Grace,1604377035,39.55,-76.09,1,59,10.29,39
1168036,PK,Pind Dadan Khan,1604377280,32.59,73.05,0,20,3.38,73.36
5540831,US,Hurricane,1604377280,37.18,-113.29,20,36,5.82,64.99
174983,AM,Armash,1604377280,39.77,44.81,20,81,2.24,48.2
4644585,US,Nashville,1604376715,36.17,-86.78,1,54,5.44,39.2
2986494,FR,Arrondissement de Poitiers,1604377280,46.58,0.33,40,93,3.36,46.99
2737599,PT,Mogadouro,1604377280,41.34,-6.71,88,85,3.15,46
710950,UA,Chapayevka,1604377280,47.47,36.35,90,90,3.33,46.36
6325479,CA,Beaupré,1604377281,47.04,-70.9,97,54,3.36,28.4
3198365,SI,Kamnik,1604377281,46.23,14.61,20,100,4.7,52
2871198,DE,Miesbach,1604377281,47.79,11.83,100,92,2.44,55.99
1529102,CN,Ürümqi,1604377188,43.8,87.6,0,38,2.24,42.8
685211,RO,Becicherecu Mic,1604377281,45.83,21.05,40,100,4.7,54
3069648,CZ,Nová Včelnice,1604377281,49.24,15.07,99,100,7.58,55
726384,BG,Topolovgrad,1604377281,42.08,26.33,75,87,2.95,46.4
6143367,CA,Sechelt,1604377225,49.47,-123.77,100,76,10.29,51.8
3193545,BA,Peći,1604377281,44.63,16.79,0,93,3.36,51.8
542334,RU,Krasnogvardeyskoye,1604377281,45.85,41.52,100,83,10.22,54.1
4900292,US,Lockport,1604377218,41.59,-88.06,1,60,9.33,42.01
670213,RO,Poieni,1604377281,46.92,22.9,90,100,1.12,45
785285,RS,Surdulica,1604377281,42.69,22.17,100,10,0.85,55
1524787,KZ,South Kazakhstan Region,1604377281,43,68,0,36,4.47,53.85
685419,RO,Baraolt,1604377281,46.08,25.6,100,84,0.38,43
5115107,US,Dix Hills,1604377281,40.8,-73.34,1,48,12.75,41
3172079,IT,Oleggio,1604377282,45.6,8.64,90,100,1.12,54
2940938,DE,Bürstadt,1604377282,49.64,8.46,100,80,5.75,55.99
3037656,FR,Angers,1604377208,47.47,-0.55,0,100,2.24,45
5176472,US,Westerville,1604377087,40.13,-82.93,1,41,14.99,41
6541106,IT,Follonica,1604377282,42.93,10.76,75,93,3.36,61
3068293,CZ,Písek,1604377282,49.31,14.15,95,99,4.7,61
6159232,CA,Summerland,1604377282,49.6,-119.67,100,65,8.05,50
669952,RO,Pomezeu,1604377282,46.78,22.28,100,100,2.24,52
727838,BG,Galabovo,1604377282,42.14,25.87,75,87,4.81,53.01
672146,RO,Nucet,1604377282,44.78,25.55,100,100,1.12,48.2
3175531,IT,Provincia di Imperia,1604377282,43.97,7.78,75,87,1.12,60.01
734943,GR,Neo Souli,1604377283,41.1,23.65,100,67,3,55.99
3187681,BA,Višegrad,1604377283,43.78,19.3,100,66,5.82,53.6
673316,RO,Milcovul,1604377283,45.65,27.25,100,63,2.95,50.27
674318,RO,Lungeşti,1604377283,44.57,24.18,100,100,3.36,52
684666,RO,Bistreț,1604377283,43.9,23.5,100,92,4.94,52
2766675,AT,Sankt Jakob,1604377283,46.55,14.06,20,100,2.24,45
3063596,CZ,Uničov,1604377283,49.77,17.12,83,99,1.23,53.01
675331,RO,Izvoru Bârzii,1604377283,44.71,22.67,100,83,2.3,54.01
616835,AM,Azatan,1604377283,40.72,43.83,90,93,2.68,42.8
662811,RO,Vinga,1604377283,46.02,21.2,75,100,3.36,54
684481,RO,Bocsig,1604377283,46.42,21.95,75,100,3.36,54
5096316,US,Carteret,1604376992,40.58,-74.23,1,48,8.05,39.99
6441828,FR,Meyzieu,1604377284,45.77,5,90,82,8.05,55.4
678421,RO,Fărtăţeşti,1604377284,44.78,24,100,100,3.36,52
3064079,CZ,Třeboň,1604377284,49,14.77,96,88,4.72,60.01
741609,TR,Merzifon,1604377284,40.87,35.46,0,86,1.25,30.2
674523,RO,Luizi-Călugăra,1604377284,46.53,26.83,20,93,2.15,46.4
3057772,SK,Šahy,1604377284,48.07,18.95,100,98,1.01,51.01
560154,RU,Gorelki,1604377284,54.27,37.62,91,91,7.7,42.85
2636531,GB,Sunderland,1604377284,54.9,-1.38,61,74,4,43
2813110,DE,Weida,1604377284,50.77,12.07,99,82,8.08,55.99
522871,RU,Neklyudovo,1604377284,56.41,43.98,90,93,6.71,37.4
2620275,DK,Hjallerup,1604377284,57.16,10.15,37,94,4,48
1492517,RU,Shadrinsk,1604377284,56.09,63.63,0,96,5.28,26.42
523415,RU,Narovchat,1604377285,53.88,43.69,23,90,6.33,38.17
687432,UA,Zdolbuniv,1604377285,50.52,26.24,100,93,1.99,46
599686,LT,Dusetos,1604377285,55.75,25.85,100,91,8.68,46.92
478269,RU,Usol'ye,1604377285,59.43,56.68,15,93,3.24,21.99
2650346,GB,East Retford,1604377285,53.32,-0.94,0,80,11.41,44.01
547560,RU,Klimovsk,1604377032,55.36,37.52,90,100,6.71,43
491351,RU,Sofrino,1604377285,56.15,37.97,90,93,6.71,42.8
3140321,NO,Oltedal,1604377285,58.83,6.05,68,96,4.25,44.01
756151,PL,Warka,1604377286,51.78,21.19,100,93,5.91,55.99
2786345,BE,Soumagne,1604377286,50.62,5.75,0,87,9.17,46.99
2953362,DE,Bad Salzdetfurth,1604377286,52.06,10.01,2,72,8.01,52
494427,RU,Shilovo,1604377286,54.32,40.87,0,91,6.6,39.34
2866333,DE,Nettetal,1604377286,51.32,6.28,14,87,5.82,48.2
2634138,GB,Whitburn,1604377286,54.95,-1.37,69,85,3,43
696292,UA,Prymors'k,1604377286,46.73,36.34,47,87,2.71,47.05
475100,RU,Verkhniye Kigi,1604377022,55.41,58.6,3,96,2.04,30.04
2026895,RU,Belogorsk,1604377286,50.92,128.46,87,88,16.67,18.68
589580,EE,Uulu,1604377286,58.28,24.58,100,91,18.01,54
711635,UA,Borodianka,1604377286,50.64,29.92,4,100,4.47,41
2654020,GB,Caldercruix,1604377286,55.89,-3.89,100,92,1.99,42.01
1494745,RU,Podsineye,1604377286,53.67,91.54,40,86,4.47,39.2
1491197,RU,Spassk,1604377286,52.75,87.75,100,90,3.15,34.48
510342,RU,Pestretsy,1604377286,55.75,49.65,90,86,8.95,28.4
556575,RU,Imeni Morozova,1604377267,59.98,31.04,100,70,18.19,46.99
3063907,CZ,Trutnov,1604377287,50.56,15.91,82,99,4.29,54
742606,TR,Köse,1604377287,40.21,39.65,75,81,3.36,50
2909240,DE,Hattersheim,1604377287,50.07,8.47,20,66,6.93,57
3095797,PL,Koło,1604377287,52.2,18.64,95,99,8.97,57.99
2799897,BE,Dalhem,1604377287,50.71,5.73,23,94,7.94,48
2612695,DK,Stavtrup,1604377287,56.13,10.12,6,93,6.93,50
2618814,DK,Kjellerup,1604377287,56.29,9.44,4,87,14.99,48.2
456827,LV,Pāvilosta,1604377287,56.89,21.19,90,87,17.22,57.2
2927226,DE,Felsberg,1604377287,51.13,9.42,75,71,8.05,52
511565,RU,Penza,1604377108,53.2,45,73,68,4.21,39.99
2634360,GB,West Linton,1604377086,55.75,-3.36,90,87,21.92,42.8
555798,RU,Issa,1604377288,53.87,44.86,86,87,5.95,38.61
588348,EE,Tapa,1604377288,59.26,25.96,90,93,17.22,54
6058415,CA,Logan Lake,1604377288,50.5,-120.8,75,70,13.87,44.6
2639083,GB,Rothesay,1604377288,55.84,-5.06,100,87,18.34,43
3092080,PL,Miastko,1604377288,54,16.98,99,97,1.99,54
2809778,DE,Wickede,1604377288,51.48,7.87,27,81,13.87,50
1506073,RU,Gur'yevsk,1604377288,54.28,85.93,100,96,3.87,30.7
542464,RU,Krasnoarmeysk,1604377288,51.02,45.7,100,79,5.01,42.01
470905,RU,Vuktyl,1604377288,63.86,57.31,84,96,11.81,24.76
537127,RU,Lakhtinskiy,1604377288,59.99,30.16,75,81,15.66,46.99
472976,RU,Vodnyy,1604377288,63.5,53.41,0,95,9.86,27.46
544397,RU,Kortkeros,1604377289,61.81,51.58,90,100,11.18,26.6
504269,RU,Pudozh,1604377289,61.81,36.53,100,83,15.43,43.56
3162970,NO,Årdalstangen,1604377289,61.24,7.7,100,94,1.01,41
632370,FI,Varkaus,1604377289,62.32,27.87,90,93,17.22,46.4
4256426,US,Dale,1604377289,38.17,-86.99,1,55,6.93,41
3145580,NO,Molde,1604377289,62.74,7.16,100,81,11.41,44.6
3135728,NO,Straumen,1604377289,63.87,11.3,75,81,12.75,48
485639,RU,Svetogorsk,1604377289,61.11,28.86,100,95,5.01,46.99
3159016,NO,Borgen,1604377289,59.82,10.43,43,81,4,43
3139148,NO,Hovin,1604377289,63.11,10.22,92,89,5.46,42.01
3420846,GL,Qaqortoq,1604377289,60.72,-46.03,96,55,8.05,33.8
515698,RU,Olenegorsk,1604377289,68.15,33.3,96,92,11.34,40.24
3145614,NO,Mo i Rana,1604377289,66.31,14.14,99,92,5.7,42.01
2126199,RU,Cherskiy,1604377290,68.75,161.3,100,89,7.58,-5.8
3420768,GL,Qasigiannguit,1604377290,68.82,-51.19,100,44,21.92,19.4
519630,RU,Novaya Ladoga,1604377290,60.1,32.3,100,70,22.26,46
779350,NO,Karasjok,1604377290,69.47,25.51,72,75,33.33,42.8
482443,RU,Toksovo,1604377290,60.15,30.52,100,82,16.78,46.99
657530,FI,Hollola,1604377290,61.05,25.43,100,87,12.97,54.95
3418653,IS,Akranes,1604377290,64.32,-22.07,75,80,12.75,39.2
2123814,RU,Leningradskiy,1604377290,69.38,178.42,98,88,22.64,12.6
1492566,RU,Severo-Yeniseyskiy,1604377290,60.37,93.04,100,97,10.45,23.36
2121197,RU,Sinegor'ye,1604377290,62.08,150.48,100,90,4.45,6.66
464790,RU,Zapolyarnyy,1604377291,69.42,30.81,75,93,26.4,37.4
653627,FI,Kauhajoki,1604377291,62.43,22.18,90,93,4.7,50
5879400,US,Anchorage,1604377084,61.22,-149.9,1,28,9.57,21.2
5870133,US,Nome,1604377291,64.5,-165.41,90,79,4.7,21.2
3135020,NO,Svolvær,1604377291,68.23,14.57,75,87,14.99,48
1508894,RU,Borovoy,1604377291,55.43,86.08,90,86,6.71,28.4
639734,FI,Rauma,1604377291,61.13,21.51,90,87,10.29,50
2124611,RU,Kholodnyy,1604377291,62.72,147.95,100,92,6.22,5.04
507899,RU,Podyuga,1604377291,61.09,40.86,100,91,12.62,38.64
508034,RU,Nikolskiy,1604377291,60.92,34.06,100,81,15.79,44.98
2121373,RU,Seymchan,1604377292,62.88,152.43,100,92,6.26,7.48
3360934,ZA,Strand,1604377292,-34.11,18.83,0,87,4.7,63
648855,FI,Lapua,1604377292,62.97,23.01,90,96,4,50
496285,RU,Severodvinsk,1604377292,64.56,39.83,90,86,15.66,39.2
474470,RU,Verkhnyaya Toyma,1604377292,62.23,45,100,92,10.2,35.1
705809,UA,Kirovsk,1604377292,48.64,38.64,96,94,4.56,47.84
533690,RU,Luga,1604377292,58.74,29.85,100,82,14.14,45.27
509820,RU,Petrozavodsk,1604377292,61.78,34.35,100,75,11.18,46.4
5924351,CA,Clyde River,1604377292,70.47,-68.59,90,78,10.29,15.8
3421719,GL,Narsaq,1604377292,60.92,-46.05,100,55,8.05,33.8
3418910,GL,Upernavik,1604377292,72.79,-56.15,61,89,6.38,15.22
3831208,GL,Qaanaaq,1604377292,77.48,-69.36,100,81,6.08,9.73
780717,NO,Båtsfjord,1604377293,70.63,29.72,75,87,21.92,42.8
780687,NO,Berlevåg,1604377293,70.86,29.09,75,80,18.34,41
779622,NO,Havøysund,1604377293,71,24.66,90,80,12.75,41
779683,NO,Hammerfest,1604377293,70.66,23.68,90,80,12.75,41
779554,NO,Honningsvåg,1604377293,70.98,25.97,75,80,18.34,41
779261,NO,Kjøllefjord,1604377293,70.95,27.35,75,80,18.34,41
779082,NO,Lakselv,1604377293,70.05,24.97,100,75,33.33,42.8
778362,NO,Øksfjord,1604377221,70.24,22.35,100,75,17.22,42.8
778707,NO,Mehamn,1604377293,71.04,27.85,75,80,18.34,41
847634,NO,Rypefjord,1604377293,70.63,23.67,90,80,12.75,41
777682,NO,Skjervøy,1604377293,70.03,20.97,100,82,22.21,46.02
777073,NO,Vadsø,1604377293,70.07,29.75,75,87,21.92,42.8
777019,NO,Vardø,1604377294,70.37,31.11,75,87,21.92,42.8
2126123,RU,Chokurdakh,1604377145,70.63,147.92,38,86,8.97,-13.09
1507390,RU,Dikson,1604377294,73.51,80.55,75,94,9.8,12.24
2022572,RU,Khatanga,1604377294,71.97,102.5,100,95,7,7.61
2017155,RU,Saskylakh,1604377145,71.92,114.08,100,95,9.98,10.83
2013921,RU,Ust-Kuyga,1604377192,70.02,135.6,91,85,7.63,-9.92
2729907,SJ,Longyearbyen,1604377173,78.22,15.64,75,95,49.44,32
2015306,RU,Tiksi,1604377294,71.69,128.87,100,93,2.51,5.47
5880054,US,Barrow,1604377294,71.29,-156.79,90,68,14.99,28.4
